[{"category": "Restaurants", "city": "Urbana Champaign, IL", "addr": "60 E Green Street Champaign, IL 61820", "rating": "4.5", "imageurl": "https://s3-media3.fl.yelpcdn.com/bphoto/cBUiMwQGjHURLJQiQona0g/90s.jpg", "title": "Maize Mexican Grill", "lon": -88.2389546, "hours": "11:00 am - 9:00 pm", "lat": 40.1104086}, {"category": "Restaurants", "city": "Urbana Champaign, IL", "addr": "505 S Neil St Champaign, IL 61820", "rating": "4.5", "imageurl": "https://s3-media3.fl.yelpcdn.com/bphoto/BpIL_WrRVh43QoQt3TTG2w/90s.jpg", "title": "Golden Harbor Authentic Chinese Cuisine", "lon": -88.2441689, "hours": "11:00 am - 3:00 pm\n4:30 pm - 9:00 pm", "lat": 40.1111456}, {"category": "Restaurants", "city": "Urbana Champaign, IL", "addr": "201 N Broadway Ave Urbana, IL 61801", "rating": "4.5", "imageurl": "https://s3-media2.fl.yelpcdn.com/bphoto/HePqDfSP-DYlMfiAmbxHGA/90s.jpg", "title": "Black Dog Smoke & Ale House", "lon": -88.207689252733, "hours": "11:00 am - 10:00 pm", "lat": 40.113818215463}, {"category": "Restaurants", "city": "Urbana Champaign, IL", "addr": "403 E Green St Champaign, IL 61820", "rating": "4.5", "imageurl": "https://s3-media1.fl.yelpcdn.com/bphoto/cHogr6eHY3Jd8lgM27j_uA/90s.jpg", "title": "Sakanaya", "lon": -88.233218, "hours": "11:30 am - 2:00 pm\n5:00 pm - 10:00 pm", "lat": 40.110113}, {"category": "Restaurants", "city": "Urbana Champaign, IL", "addr": "301 N Neil St Champaign, IL 61820", "rating": "4.0", "imageurl": "https://s3-media1.fl.yelpcdn.com/bphoto/itAKUSMr9tD13qhtAJI6GQ/90s.jpg", "title": "DESTIHL Restaurant & Brew Works", "lon": -88.2437766095081, "hours": "11:00 am - 10:00 pm", "lat": 40.1183372538282}, {"category": "Restaurants", "city": "Urbana Champaign, IL", "addr": "1201 S Neil St Champaign, IL 61820", "rating": "3.5", "imageurl": "https://s3-media3.fl.yelpcdn.com/bphoto/Po-zhi0yV28Qh9c6CcKYRw/90s.jpg", "title": "Papa Del\u2019s Pizza", "lon": -88.2441637, "hours": "10:00 am - 11:00 pm", "lat": 40.1032417}, {"category": "Restaurants", "city": "Urbana Champaign, IL", "addr": "308 N Randolph St Champaign, IL 61820", "rating": "4.0", "imageurl": "https://s3-media2.fl.yelpcdn.com/bphoto/coqqQBuSe-E-ss0I7RcX8w/90s.jpg", "title": "Farren\u2019s Pub & Eatery", "lon": -88.244834, "hours": "11:00 am - 10:00 pm", "lat": 40.118679}, {"category": "Restaurants", "city": "Urbana Champaign, IL", "addr": "32 E Chester St Champaign, IL 61820", "rating": "4.0", "imageurl": "https://s3-media2.fl.yelpcdn.com/bphoto/OQkuCXRZaKHs_mM8lh3GWA/90s.jpg", "title": "Seven Saints", "lon": -88.2420127724, "hours": "11:00 am - 12:00 am", "lat": 40.1165558776}, {"category": "Restaurants", "city": "Urbana Champaign, IL", "addr": "120 N Walnut St Champaign, IL 61820", "rating": "4.0", "imageurl": "https://s3-media2.fl.yelpcdn.com/bphoto/l9FUb4-z0fGQQF2uzUbPDw/90s.jpg", "title": "The Blind Pig Company", "lon": -88.24228353204, "hours": "3:00 pm - 2:00 am", "lat": 40.116985629963}, {"category": "Restaurants", "city": "Urbana Champaign, IL", "addr": "1305 S Neil St Champaign, IL 61820", "rating": "4.0", "imageurl": "https://s3-media4.fl.yelpcdn.com/bphoto/KfUeGgRvjTBsQVLPFqeozg/90s.jpg", "title": "Meatheads", "lon": -88.24448, "hours": "11:00 am - 10:00 pm", "lat": 40.101522}, {"category": "Restaurants", "city": "Urbana Champaign, IL", "addr": "60 E Green Street Champaign, IL 61820", "rating": "4.5", "imageurl": "https://s3-media3.fl.yelpcdn.com/bphoto/cBUiMwQGjHURLJQiQona0g/90s.jpg", "title": "Maize Mexican Grill", "lon": -88.2389546, "hours": "11:00 am - 9:00 pm", "lat": 40.1104086}, {"category": "Restaurants", "city": "Urbana Champaign, IL", "addr": "2135 S Neil St Champaign, IL 61820", "rating": "4.5", "imageurl": "https://s3-media1.fl.yelpcdn.com/bphoto/GNtYJ0qtgEAV-_U9gf9spQ/90s.jpg", "title": "Caribbean Grill Restaurant", "lon": -88.247455, "hours": "11:00 am - 8:00 pm", "lat": 40.087699}, {"category": "Restaurants", "city": "Urbana Champaign, IL", "addr": "118 N Neil St Champaign, IL 61820", "rating": "4.5", "imageurl": "https://s3-media3.fl.yelpcdn.com/bphoto/d0gFdEiHuRI6zktBaAyigw/90s.jpg", "title": "Aroma Cafe", "lon": -88.2432469, "hours": "7:00 am - 10:00 pm", "lat": 40.1170558}, {"category": "Restaurants", "city": "Urbana Champaign, IL", "addr": "410 E Green St Unit 3 Champaign, IL 61820", "rating": "4.0", "imageurl": "https://s3-media1.fl.yelpcdn.com/bphoto/MU3CL_tLFQcxD7zkwXz_tw/90s.jpg", "title": "Bangkok Thai and Pho 911", "lon": -88.2325823, "hours": "11:00 am - 9:00 pm", "lat": 40.1105683}, {"category": "Restaurants", "city": "Urbana Champaign, IL", "addr": "2018 S Neil St Champaign, IL 61820", "rating": "5.0", "imageurl": "https://s3-media1.fl.yelpcdn.com/bphoto/qRT2S0lAclFBDwxLpzrDRg/90s.jpg", "title": "Old Time Meat & Deli Shoppe", "lon": -88.245362, "hours": "10:00 am - 6:00 pm", "lat": 40.091901}, {"category": "Restaurants", "city": "Urbana Champaign, IL", "addr": "301 N Neil St Ste 104 Champaign, IL 61820", "rating": "4.0", "imageurl": "https://s3-media2.fl.yelpcdn.com/bphoto/VKLL1DTAvRoMgUQLvR-21A/90s.jpg", "title": "Miga", "lon": -88.2439332380982, "hours": "5:00 pm - 10:00 pm", "lat": 40.1183926387326}, {"category": "Restaurants", "city": "Urbana Champaign, IL", "addr": "510 N Cunningham Ave Urbana, IL 61802", "rating": "5.0", "imageurl": "https://s3-media1.fl.yelpcdn.com/bphoto/4EXH8Zpo1OfrmprDL0urqw/90s.jpg", "title": "El Oasis", "lon": -88.203156, "hours": "12:00 pm - 8:00 pm", "lat": 40.117278}, {"category": "Restaurants", "city": "Urbana Champaign, IL", "addr": "109 N Walnut St Champaign, IL 61820", "rating": "4.0", "imageurl": "https://s3-media1.fl.yelpcdn.com/bphoto/e7mOvtdaEeH-NwvQTXBdOA/90s.jpg", "title": "Cafe Kopi", "lon": -88.2427527, "hours": "7:00 am - 11:00 pm", "lat": 40.1168129}, {"category": "Restaurants", "city": "Urbana Champaign, IL", "addr": "6 E Columbia Ave Champaign, IL 61820", "rating": "4.5", "imageurl": "https://s3-media1.fl.yelpcdn.com/bphoto/EOU7X_gmQJ-6Hk3-eMa1mg/90s.jpg", "title": "Kohinoor Indian Restaurant and Lounge", "lon": -88.2427998585683, "hours": "11:00 am - 3:00 pm\n4:30 pm - 10:00 pm", "lat": 40.1212553299844}, {"category": "Restaurants", "city": "Urbana Champaign, IL", "addr": "1909 W Springfield Ave Ste B Champaign, IL 61821", "rating": "4.0", "imageurl": "https://s3-media1.fl.yelpcdn.com/bphoto/JweY0wnelPWIr-2UgNPD9g/90s.jpg", "title": "Original Pancake House", "lon": -88.278196, "hours": "6:30 am - 1:30 pm", "lat": 40.11246}, {"category": "Restaurants", "city": "Urbana Champaign, IL", "addr": "320 N Chestnut St Champaign, IL 61820", "rating": "4.0", "imageurl": "https://s3-media1.fl.yelpcdn.com/bphoto/zw2BV0h9c5Be1YJTs6xyPg/90s.jpg", "title": "Black Dog Smoke & Ale House", "lon": -88.240271, "hours": "11:00 am - 10:00 pm", "lat": 40.117978}, {"category": "Restaurants", "city": "Urbana Champaign, IL", "addr": "111 N Race St Urbana, IL 61801", "rating": "4.0", "imageurl": "https://s3-media2.fl.yelpcdn.com/bphoto/DpSM8tU8pFWltNKb9W3IOQ/90s.jpg", "title": "Courier Cafe", "lon": -88.2090229913592, "hours": "7:00 am - 11:00 pm", "lat": 40.1128225269109}, {"category": "Restaurants", "city": "Urbana Champaign, IL", "addr": "603 S Wright St Champaign, IL 61820", "rating": "4.0", "imageurl": "https://s3-media3.fl.yelpcdn.com/bphoto/N4mVdhIilXEgnmP68Q33Dg/90s.jpg", "title": "Cravings", "lon": -88.229060407463, "hours": "11:00 am - 9:00 pm", "lat": 40.111220370343}, {"category": "Restaurants", "city": "Urbana Champaign, IL", "addr": "1 E Main St Ste 101 Champaign, IL 61820", "rating": "3.5", "imageurl": "https://s3-media3.fl.yelpcdn.com/bphoto/I3FTwxp5FPQ6Wz7A6PXqHw/90s.jpg", "title": "Big Grove Tavern", "lon": -88.2429963, "hours": "11:00 am - 10:00 pm", "lat": 40.1183809}, {"category": "Restaurants", "city": "Urbana Champaign, IL", "addr": "805 Philo Rd Urbana, IL 61801", "rating": "4.5", "imageurl": "https://s3-media2.fl.yelpcdn.com/bphoto/PbPiEwCcWt9F57sBXDD1Aw/90s.jpg", "title": "Huaraches Moroleon", "lon": -88.1951387, "hours": "10:00 am - 9:00 pm", "lat": 40.1058258}, {"category": "Restaurants", "city": "Urbana Champaign, IL", "addr": "2235 S Neil St Champaign, IL 61820", "rating": "3.5", "imageurl": "https://s3-media4.fl.yelpcdn.com/bphoto/sgd9K2eL5vnl8m9i3ifNSg/90s.jpg", "title": "Biaggi\u2019s Ristorante Italiano", "lon": -88.2469860628825, "hours": "11:00 am - 9:30 pm", "lat": 40.0865504478107}, {"category": "Restaurants", "city": "Urbana Champaign, IL", "addr": "119 N Walnut St Champaign, IL 61820", "rating": "3.5", "imageurl": "https://s3-media2.fl.yelpcdn.com/bphoto/KaYPTsigNXRKVni3x-XJPw/90s.jpg", "title": "Radio Maria", "lon": -88.2426339, "hours": "4:00 pm - 2:00 am", "lat": 40.117107}, {"category": "Restaurants", "city": "Urbana Champaign, IL", "addr": "113 N Walnut St Champaign, IL 61820", "rating": "4.0", "imageurl": "https://s3-media1.fl.yelpcdn.com/bphoto/LC45U-HLfVw3hgqEpy1MYg/90s.jpg", "title": "Bacaro", "lon": -88.242601924633, "hours": "5:00 pm - 11:00 pm", "lat": 40.116906980618}, {"category": "Restaurants", "city": "Urbana Champaign, IL", "addr": "402 E Green St Ste A Champaign, IL 61820", "rating": "4.0", "imageurl": "https://s3-media2.fl.yelpcdn.com/bphoto/9RG7BXGcW--zGXjm21UeAQ/90s.jpg", "title": "Lai Lai Wok", "lon": -88.2333105, "hours": "10:30 am - 10:00 pm", "lat": 40.1104755}, {"category": "Restaurants", "city": "Urbana Champaign, IL", "addr": "211 N Neil St Champaign, IL 61820", "rating": "4.0", "imageurl": "https://s3-media4.fl.yelpcdn.com/bphoto/cncKxV4VYB7sWcXgOTOmvQ/90s.jpg", "title": "Watson\u2019s Shack & Rail", "lon": -88.243876, "hours": "11:00 am - 10:00 pm", "lat": 40.117733}, {"category": "Restaurants", "city": "Urbana Champaign, IL", "addr": "204 N Neil St Champaign, IL 61820", "rating": "4.0", "imageurl": "https://s3-media4.fl.yelpcdn.com/bphoto/YZeqt-SBX6fBuJ-Xg0vXBg/90s.jpg", "title": "Nando Milano Trattoria", "lon": -88.243507, "hours": "5:00 pm - 10:00 pm", "lat": 40.1175503}, {"category": "Restaurants", "city": "Urbana Champaign, IL", "addr": "114 N Walnut St Champaign, IL 61820", "rating": "3.5", "imageurl": "https://s3-media4.fl.yelpcdn.com/bphoto/AqplW6QCQ6QOIg662xfBnA/90s.jpg", "title": "Cream & Flutter", "lon": -88.242223, "hours": "11:00 am - 9:00 pm", "lat": 40.116833}, {"category": "Restaurants", "city": "Urbana Champaign, IL", "addr": "106 N Walnut St Champaign, IL 61820", "rating": "4.0", "imageurl": "https://s3-media1.fl.yelpcdn.com/bphoto/4NxTw61FMo61TmDDDK92sA/90s.jpg", "title": "Esquire Lounge", "lon": -88.242292, "hours": "11:00 am - 2:00 am", "lat": 40.116597}, {"category": "Restaurants", "city": "Urbana Champaign, IL", "addr": "1 E Main St Champaign, IL 61820", "rating": "3.5", "imageurl": "https://s3-media4.fl.yelpcdn.com/bphoto/SxzAsZleYc-qhq7A8q_VMA/90s.jpg", "title": "Kofusion", "lon": -88.2432330386431, "hours": "11:00 am - 11:00 pm", "lat": 40.1185666238325}, {"category": "Restaurants", "city": "Urbana Champaign, IL", "addr": "619 E Green St Champaign, IL 61820", "rating": "4.5", "imageurl": "https://s3-media2.fl.yelpcdn.com/bphoto/lUz5NPQS7KWpIgZV-gjkXQ/90s.jpg", "title": "Cracked the Egg Came First", "lon": -88.2296092, "hours": "8:00 am - 4:00 pm", "lat": 40.1100646}, {"category": "Restaurants", "city": "Urbana Champaign, IL", "addr": "44 E Sprinfield Champaign, IL 61820", "rating": "5.0", "imageurl": "https://s3-media1.fl.yelpcdn.com/bphoto/s6neDI4X_Pnn5ZSohVWWNA/90s.jpg", "title": "Fernando\u2019s Food", "lon": -88.240511, "hours": "10:00 am - 8:00 pm", "lat": 40.112846}, {"category": "Restaurants", "city": "Urbana Champaign, IL", "addr": "1115 W Windsor Rd Champaign, IL 61821", "rating": "4.0", "imageurl": "https://s3-media2.fl.yelpcdn.com/bphoto/bZKR8DOFXIy6m0a2U0GRPQ/90s.jpg", "title": "Sun Singer Wine and Spirits", "lon": -88.264391, "hours": "10:00 am - 10:00 pm", "lat": 40.0831838}, {"category": "Restaurants", "city": "Urbana Champaign, IL", "addr": "122 N Neil St Champaign, IL 61820", "rating": "4.0", "imageurl": "https://s3-media1.fl.yelpcdn.com/bphoto/uG5P0NpoHrjOwUpUkRXfHg/90s.jpg", "title": "V Picasso", "lon": -88.2431919, "hours": "4:00 pm - 11:00 pm", "lat": 40.117237}, {"category": "Restaurants", "city": "Urbana Champaign, IL", "addr": "134 W Church St Champaign, IL 61820", "rating": "4.0", "imageurl": "https://s3-media1.fl.yelpcdn.com/bphoto/1Kd4lwfCjmOt9wd4EwuQug/90s.jpg", "title": "The Himalayan Chimney", "lon": -88.2449947, "hours": "11:00 am - 3:00 pm\n5:00 pm - 10:00 pm", "lat": 40.1185125}, {"category": "Restaurants", "city": "Urbana Champaign, IL", "addr": "1209 W Oregon St Urbana, IL 61801", "rating": "4.5", "imageurl": "https://s3-media4.fl.yelpcdn.com/bphoto/eINrFkFdnxYGVdJNXfCP8Q/90s.jpg", "title": "The Red Herring Vegetarian Restaurant", "lon": -88.2251981, "hours": "11:00 am - 2:30 pm", "lat": 40.1067731}, {"category": "Restaurants", "city": "Urbana Champaign, IL", "addr": "912 1/2 W Bloomington Rd Champaign, IL 61821", "rating": "4.0", "imageurl": "https://s3-media2.fl.yelpcdn.com/bphoto/VmSAkFv3lDCG7_VxObMchA/90s.jpg", "title": "Thara Thai", "lon": -88.260627, "hours": "11:00 am - 9:30 pm", "lat": 40.133725}, {"category": "Restaurants", "city": "Urbana Champaign, IL", "addr": "39 E Main St Champaign, IL 61820", "rating": "4.0", "imageurl": "https://s3-media3.fl.yelpcdn.com/bphoto/fNnCe-0BoAWC9X5iiiHXwg/90s.jpg", "title": "Jupiter\u2019s Pizzeria and Billiards", "lon": -88.241513984004, "hours": "11:00 am - 2:00 am", "lat": 40.117741911204}, {"category": "Restaurants", "city": "Urbana Champaign, IL", "addr": "115 N Walnut St Champaign, IL 61820", "rating": "4.0", "imageurl": "https://s3-media1.fl.yelpcdn.com/bphoto/FWzmamkIJ6mCQo2oWE5ReA/90s.jpg", "title": "Sam\u2019s Cafe", "lon": -88.2426671, "hours": "6:00 am - 2:00 pm", "lat": 40.1169816}, {"category": "Restaurants", "city": "Urbana Champaign, IL", "addr": "706 S Goodwin Ave Urbana, IL 61801", "rating": "3.5", "imageurl": "https://s3-media1.fl.yelpcdn.com/bphoto/rAFy2zIImv6YBY6wdyyyXg/90s.jpg", "title": "The Bread Company", "lon": -88.2236159, "hours": "8:00 am - 10:00 pm", "lat": 40.1067362}, {"category": "Restaurants", "city": "Urbana Champaign, IL", "addr": "1407 N Prospect Ave Champaign, IL 61820", "rating": "4.0", "imageurl": "https://s3-media1.fl.yelpcdn.com/bphoto/Lzd9yU6FCTDWi4HxNyDsiQ/90s.jpg", "title": "Dos Reales", "lon": -88.258313, "hours": "11:00 am - 10:00 pm", "lat": 40.129902}, {"category": "Restaurants", "city": "Urbana Champaign, IL", "addr": "126 W Main St Urbana, IL 61801", "rating": "4.5", "imageurl": "https://s3-media2.fl.yelpcdn.com/bphoto/aWrdTK8-HD9ldMmt9nW3BA/90s.jpg", "title": "The Dancing Dog Eatery & Juicery", "lon": -88.2085029, "hours": "11:00 am - 8:00 pm", "lat": 40.112757}, {"category": "Restaurants", "city": "Urbana Champaign, IL", "addr": "212 W Main St Urbana, IL 61801", "rating": "4.0", "imageurl": "https://s3-media2.fl.yelpcdn.com/bphoto/t959O4oJ5Q2nFQiGYyms6Q/90s.jpg", "title": "Siam Terrace", "lon": -88.209446, "hours": "11:00 am - 3:00 pm\n5:00 pm - 10:00 pm", "lat": 40.112708}, {"category": "Restaurants", "city": "Urbana Champaign, IL", "addr": "700 S Gregory St Ste D Urbana, IL 61801", "rating": "4.0", "imageurl": "https://s3-media1.fl.yelpcdn.com/bphoto/eCfRm1zxDxnUKKDmkSRR7Q/90s.jpg", "title": "J Gumbo\u2019s", "lon": -88.2218027, "hours": "11:00 am - 9:00 pm", "lat": 40.1065109}, {"category": "Restaurants", "city": "Urbana Champaign, IL", "addr": "627 E Green St Champaign, IL 61820", "rating": "3.5", "imageurl": "https://s3-media2.fl.yelpcdn.com/bphoto/YoIY6ExRQpgH6q2MaxIx7g/90s.jpg", "title": "Zorba\u2019s Restaurant", "lon": -88.2292884, "hours": "11:00 am - 10:00 pm", "lat": 40.1101284}, {"category": "Restaurants", "city": "Urbana Champaign, IL", "addr": "132 W Church St Champaign, IL 61820", "rating": "3.5", "imageurl": "https://s3-media4.fl.yelpcdn.com/bphoto/hNm9jXKyZyR6ZGQmHDA7nQ/90s.jpg", "title": "Sushi Kame", "lon": -88.2448027, "hours": "11:30 am - 2:30 pm\n5:00 pm - 9:30 pm", "lat": 40.1185309}, {"category": "Restaurants", "city": "Urbana Champaign, IL", "addr": "1715 W Kirby Champaign, IL 61821", "rating": "4.0", "imageurl": "https://s3-media3.fl.yelpcdn.com/bphoto/kiSnogZSAYN_PnKf3UmRbw/90s.jpg", "title": "Cheese and Crackers", "lon": -88.27398, "hours": "10:00 am - 8:00 pm", "lat": 40.0982258}, {"category": "Restaurants", "city": "Urbana Champaign, IL", "addr": "405 E University Ave Champaign, IL 61820", "rating": "4.0", "imageurl": "https://s3-media1.fl.yelpcdn.com/bphoto/hMkIW3LwkWcjbzuWPnbZVg/90s.jpg", "title": "Golden Wok", "lon": -88.2328394, "hours": "11:00 am - 9:30 pm", "lat": 40.1160086}, {"category": "Restaurants", "city": "Urbana Champaign, IL", "addr": "1402 S Neil St Champaign, IL 61820", "rating": "3.5", "imageurl": "https://s3-media1.fl.yelpcdn.com/bphoto/ILAc699zANeASmymLeN79g/90s.jpg", "title": "Rainbow Garden", "lon": -88.2439537, "hours": "11:00 am - 9:30 pm", "lat": 40.1005214}, {"category": "Restaurants", "city": "Urbana Champaign, IL", "addr": "114 N Vine St Urbana, IL 61802", "rating": "4.0", "imageurl": "https://s3-media1.fl.yelpcdn.com/bphoto/f5P04rLgHsMnU8WXgfogZQ/90s.jpg", "title": "Xinh Xinh Cafe", "lon": -88.2031739192663, "hours": "11:00 am - 9:00 pm", "lat": 40.1132039811962}, {"category": "Restaurants", "city": "Urbana Champaign, IL", "addr": "116 N Neil St Champaign, IL 61821", "rating": "3.5", "imageurl": "https://s3-media3.fl.yelpcdn.com/bphoto/y_h3QMPyiZtr_KDs1kH0IQ/90s.jpg", "title": "Pekara Bakery and Bistro", "lon": -88.2432482, "hours": "7:00 am - 8:00 pm", "lat": 40.1170088}, {"category": "Restaurants", "city": "Urbana Champaign, IL", "addr": "115 W Main St Urbana, IL 61801", "rating": "3.5", "imageurl": "https://s3-media2.fl.yelpcdn.com/bphoto/HdQfHU_qndY_lVCGeosn7w/90s.jpg", "title": "Crane Alley", "lon": -88.2080353, "hours": "11:00 am - 2:00 am", "lat": 40.1121427}, {"category": "Restaurants", "city": "Urbana Champaign, IL", "addr": "2209 S Neil St Champaign, IL 61820", "rating": "3.5", "imageurl": "https://s3-media2.fl.yelpcdn.com/bphoto/vgFSnZ4dHodBILXeZjX1BA/90s.jpg", "title": "Le Peep Restaurant", "lon": -88.248177, "hours": "6:30 am - 2:00 pm", "lat": 40.086871}, {"category": "Restaurants", "city": "Urbana Champaign, IL", "addr": "2006 S Neil St Champaign, IL 61820", "rating": "3.5", "imageurl": "https://s3-media1.fl.yelpcdn.com/bphoto/66fMi8L8zFfgjixiUkz5_Q/90s.jpg", "title": "B Won", "lon": -88.2452981, "hours": "N/A - N/A", "lat": 40.0920944}, {"category": "Restaurants", "city": "Urbana Champaign, IL", "addr": "206 N Randolph St Champaign, IL 61820", "rating": "4.0", "imageurl": "https://s3-media4.fl.yelpcdn.com/bphoto/OXuzgoqrbVvsBqozMtgtJA/90s.jpg", "title": "Peking Garden Restaurant", "lon": -88.2451191659442, "hours": "11:00 am - 10:00 pm", "lat": 40.1178481689476}, {"category": "Restaurants", "city": "Urbana Champaign, IL", "addr": "Champaign, IL 61821", "rating": "4.5", "imageurl": "https://s3-media4.fl.yelpcdn.com/bphoto/M-MTiVn3eCVgCoSEO__qHw/90s.jpg", "title": "Caribbean Grill Food Truck", "lon": -88.2753144, "hours": "11:00 am - 2:00 pm", "lat": 40.1017582}, {"category": "Restaurants", "city": "Urbana Champaign, IL", "addr": "10 E Chester St Champaign, IL 61820", "rating": "4.0", "imageurl": "https://s3-media4.fl.yelpcdn.com/bphoto/OFALGO30ieWKtoFT_R0lAQ/90s.jpg", "title": "Pizzeria Antica", "lon": -88.242964, "hours": "11:00 am - 3:00 pm\n5:00 pm - 9:00 pm", "lat": 40.116869}, {"category": "Restaurants", "city": "Urbana Champaign, IL", "addr": "216 S 1st St Champaign, IL 61820", "rating": "4.0", "imageurl": "https://s3-media1.fl.yelpcdn.com/bphoto/kCLiK04rQSUZQBys_GxsBg/90s.jpg", "title": "Fiesta Cafe", "lon": -88.2384767, "hours": "11:00 am - 11:00 pm", "lat": 40.114786}, {"category": "Restaurants", "city": "Urbana Champaign, IL", "addr": "604 E Green St Champaign, IL 61820", "rating": "3.5", "imageurl": "https://s3-media3.fl.yelpcdn.com/bphoto/WtfY3BE_thsKQGFUxzQtPw/90s.jpg", "title": "Murphy\u2019s Pub", "lon": -88.2301879674196, "hours": "11:00 am - 2:00 am", "lat": 40.1103799066466}, {"category": "Restaurants", "city": "Urbana Champaign, IL", "addr": "623 E Green St Champaign, IL 61820", "rating": "4.0", "imageurl": "https://s3-media2.fl.yelpcdn.com/bphoto/zeUZHDug800sLBXST8f1_Q/90s.jpg", "title": "Mid-Summer Lounge", "lon": -88.2298014, "hours": "11:15 am - 2:00 pm\n5:00 pm - 8:00 pm", "lat": 40.1102797}, {"category": "Restaurants", "city": "Urbana Champaign, IL", "addr": "1115 W Oregon St Urbana, IL 61801", "rating": "3.5", "imageurl": "https://s3-media3.fl.yelpcdn.com/bphoto/HXUo8O7Zspwn_k0pQfomhQ/90s.jpg", "title": "Manolo\u2019s Pizza & Empanadas", "lon": -88.223406371455, "hours": "8:30 am - 2:30 am", "lat": 40.106932242854}, {"category": "Restaurants", "city": "Urbana Champaign, IL", "addr": "501 E Green St Champaign, IL 61820", "rating": "4.0", "imageurl": "https://s3-media1.fl.yelpcdn.com/bphoto/PJ6x18bQNJTCKFnPPFuNNw/90s.jpg", "title": "Potbelly Sandwich Shop", "lon": -88.231874, "hours": "11:00 am - 11:00 pm", "lat": 40.110141}, {"category": "Restaurants", "city": "Urbana Champaign, IL", "addr": "202 N Race Ste A Urbana, IL 61801", "rating": "4.0", "imageurl": "https://s3-media2.fl.yelpcdn.com/bphoto/GnOP9nlP3KzWaozrGjAzvA/90s.jpg", "title": "Masijta Grill", "lon": -88.2088348, "hours": "10:30 am - 10:00 pm", "lat": 40.1137608}, {"category": "Restaurants", "city": "Urbana Champaign, IL", "addr": "601 S 6th St Ste 104 Champaign, IL 61820", "rating": "4.5", "imageurl": "https://s3-media3.fl.yelpcdn.com/bphoto/MP6SfXhmNbYxnYIn4bYA5Q/90s.jpg", "title": "Salad Meister", "lon": -88.2305980101228, "hours": "11:00 am - 9:00 pm", "lat": 40.1111668573957}, {"category": "Restaurants", "city": "Urbana Champaign, IL", "addr": "401 W Kirby Ave Champaign, IL 61820", "rating": "3.5", "imageurl": "https://s3-media3.fl.yelpcdn.com/bphoto/mnoR_3L2HfHzYDnWGjBZDw/90s.jpg", "title": "Vinny\u2019s East Coast Pizzeria", "lon": -88.2484631, "hours": "10:00 am - 10:00 pm", "lat": 40.0977984}, {"category": "Restaurants", "city": "Urbana Champaign, IL", "addr": "Serving Champaign and surrounding area", "rating": "4.5", "imageurl": "https://s3-media2.fl.yelpcdn.com/bphoto/G7TrGejGYO1auYcRfx5XOA/90s.jpg", "title": "Dragon Fire Pizza", "lon": -88.23223114013672, "hours": "11:00 am - 2:00 pm", "lat": 40.09991556731253}, {"category": "Restaurants", "city": "Urbana Champaign, IL", "addr": "601 S 6th St Ste 101 Champaign, IL 61820", "rating": "4.0", "imageurl": "https://s3-media1.fl.yelpcdn.com/bphoto/FsV99DzMt_nhiCGXbVvL_g/90s.jpg", "title": "Jipbap Taste of Korea", "lon": -88.230494646061, "hours": "11:00 am - 9:00 pm", "lat": 40.1113775415054}, {"category": "Restaurants", "city": "Urbana Champaign, IL", "addr": "611 E Green St Ste B Champaign, IL 61820", "rating": "4.0", "imageurl": "https://s3-media2.fl.yelpcdn.com/bphoto/jTPo8_qW_M1lnJ0o3bxVAA/90s.jpg", "title": "Pho Cafe", "lon": -88.229804, "hours": "N/A - N/A", "lat": 40.110039}, {"category": "Restaurants", "city": "Urbana Champaign, IL", "addr": "401 E Green St Champaign, IL 61820", "rating": "3.5", "imageurl": "https://s3-media4.fl.yelpcdn.com/bphoto/PrDH6geGalwAZiwP4M4mZQ/90s.jpg", "title": "Bombay Indian Grill", "lon": -88.233544, "hours": "11:00 am - 3:00 pm\n5:00 pm - 9:30 pm", "lat": 40.110474}, {"category": "Restaurants", "city": "Urbana Champaign, IL", "addr": "1917 W Springfield Ave Champaign, IL 61821", "rating": "4.0", "imageurl": "https://s3-media4.fl.yelpcdn.com/bphoto/MQGzY79mfO46gLzHZ_r-eA/90s.jpg", "title": "Li\u2019l Porgy\u2019s Bar-B-Que", "lon": -88.280002, "hours": "11:00 am - 9:00 pm", "lat": 40.112421}, {"category": "Restaurants", "city": "Urbana Champaign, IL", "addr": "1405 S Neil St Ste C Champaign, IL 61820", "rating": "4.0", "imageurl": "https://s3-media3.fl.yelpcdn.com/bphoto/pEvZ_Irw3e8IH4M7YWEU0A/90s.jpg", "title": "Cactus Grill", "lon": -88.2447937, "hours": "11:00 am - 9:00 pm", "lat": 40.0996476}, {"category": "Restaurants", "city": "Urbana Champaign, IL", "addr": "100 Trade Centre Dr Champaign, IL 61820", "rating": "4.0", "imageurl": "https://s3-media3.fl.yelpcdn.com/bphoto/ZnXVu7Gvt7vbtYFk_apwbQ/90s.jpg", "title": "Baxter\u2019s American Grille", "lon": -88.2458299398422, "hours": "11:00 am - 10:30 pm", "lat": 40.0972098874916}, {"category": "Restaurants", "city": "Urbana Champaign, IL", "addr": "710 S Goodwin Ave Urbana, IL 61801", "rating": "3.5", "imageurl": "https://s3-media1.fl.yelpcdn.com/bphoto/U2D6GFY7cEwhjjJUyNp6Hw/90s.jpg", "title": "Timpone\u2019s", "lon": -88.2236145, "hours": "11:00 am - 9:00 pm", "lat": 40.1064232}, {"category": "Restaurants", "city": "Urbana Champaign, IL", "addr": "402 N Race St Urbana, IL 61801", "rating": "3.5", "imageurl": "https://s3-media4.fl.yelpcdn.com/bphoto/9PuXdR_XINzCaRW5hs7_-g/90s.jpg", "title": "Silvercreek", "lon": -88.2086039, "hours": "11:00 am - 3:00 pm\n5:00 pm - 10:00 pm", "lat": 40.115461}, {"category": "Restaurants", "city": "Urbana Champaign, IL", "addr": "1701 S Neil St Champaign, IL 61820", "rating": "3.5", "imageurl": "https://s3-media3.fl.yelpcdn.com/bphoto/vLuBwnCB_zlAaq84dwW9Mw/90s.jpg", "title": "The Ribeye", "lon": -88.2453958, "hours": "4:30 pm - 9:00 pm", "lat": 40.0961489}, {"category": "Restaurants", "city": "Urbana Champaign, IL", "addr": "801 S Lincoln Ave Urbana, IL 61801", "rating": "3.5", "imageurl": "https://s3-media3.fl.yelpcdn.com/bphoto/7sGoWIbPPdqdZV9KITz-Dg/90s.jpg", "title": "Caffe Paradiso", "lon": -88.2194085, "hours": "7:00 am - 11:00 pm", "lat": 40.1057373}, {"category": "Restaurants", "city": "Urbana Champaign, IL", "addr": "301 N Neil St Champaign, IL 61820", "rating": "3.5", "imageurl": "https://s3-media3.fl.yelpcdn.com/bphoto/slePrUr8lUXgHOtLjnNToA/90s.jpg", "title": "Dublin O\u2019Neil\u2019s", "lon": -88.2438816, "hours": "11:00 am - 2:00 am", "lat": 40.1190386}, {"category": "Restaurants", "city": "Urbana Champaign, IL", "addr": "1510 S Neil St Champaign, IL 61820", "rating": "3.0", "imageurl": "https://s3-media3.fl.yelpcdn.com/bphoto/cY2w6XHKRF0Oy8IkM6J3kQ/90s.jpg", "title": "Merry Ann\u2019s Diner", "lon": -88.2442462116229, "hours": "Open 24 hours", "lat": 40.0984525131702}, {"category": "Restaurants", "city": "Urbana Champaign, IL", "addr": "710 S 6th St Champaign, IL 61822", "rating": "3.5", "imageurl": "https://s3-media1.fl.yelpcdn.com/bphoto/mAuSeIJJBT10kGMdPwImnw/90s.jpg", "title": "Woori Jib Restaurant", "lon": -88.230064, "hours": "N/A - N/A", "lat": 40.10959}, {"category": "Restaurants", "city": "Urbana Champaign, IL", "addr": "2510 Village Green Pl Champaign, IL 61822", "rating": "5.0", "imageurl": "https://s3-media4.fl.yelpcdn.com/bphoto/Y5ijk0xvlmyCDz0McDxrwQ/90s.jpg", "title": "Pie\u2019s the Limit", "lon": -88.2959913, "hours": "N/A - N/A", "lat": 40.0816433}, {"category": "Restaurants", "city": "Urbana Champaign, IL", "addr": "522 E Green St Champaign, IL 61820", "rating": "3.5", "imageurl": "https://s3-media2.fl.yelpcdn.com/bphoto/FdubLyvY60OiVR5XvGJAPQ/90s.jpg", "title": "Legends", "lon": -88.2311706, "hours": "11:00 am - 2:00 am", "lat": 40.1104968}, {"category": "Restaurants", "city": "Urbana Champaign, IL", "addr": "904 N 4th St Ste B Champaign, IL 61820", "rating": "4.5", "imageurl": "https://s3-media4.fl.yelpcdn.com/bphoto/5Tr5OUejWMD_MYBc2tAaYQ/90s.jpg", "title": "Wood N\u2019 Hog Barbecue", "lon": -88.233577, "hours": "11:00 am - 8:00 pm", "lat": 40.12454}, {"category": "Restaurants", "city": "Urbana Champaign, IL", "addr": "2149 S Neil St Champaign, IL 61820", "rating": "4.5", "imageurl": "https://s3-media3.fl.yelpcdn.com/bphoto/NN1jffIitbSkpWNql3woiA/90s.jpg", "title": "Great Harvest Bread - Champaign", "lon": -88.247965, "hours": "7:00 am - 6:00 pm", "lat": 40.087815}, {"category": "Restaurants", "city": "Urbana Champaign, IL", "addr": "2504 Village Green Pl Champaign, IL 61822", "rating": "4.5", "imageurl": "https://s3-media4.fl.yelpcdn.com/bphoto/8h3CEJdXZebTrIGd7Gl1gQ/90s.jpg", "title": "San Maru", "lon": -88.2963452, "hours": "11:00 am - 8:30 pm", "lat": 40.0818615}, {"category": "Restaurants", "city": "Urbana Champaign, IL", "addr": "708 S 6th St Champaign, IL 61820", "rating": "3.5", "imageurl": "https://s3-media1.fl.yelpcdn.com/bphoto/TE22NcCLkdLGocx1W0XOqw/90s.jpg", "title": "Firehaus", "lon": -88.2303603, "hours": "11:00 am - 2:00 am", "lat": 40.1096938}, {"category": "Restaurants", "city": "Urbana Champaign, IL", "addr": "629 E Green St Champaign, IL 61820", "rating": "3.0", "imageurl": "https://s3-media3.fl.yelpcdn.com/bphoto/1xisNuF1QgaJktmkjx6vtg/90s.jpg", "title": "Mia Za\u2019s Cafe", "lon": -88.2292247, "hours": "11:00 am - 8:00 pm", "lat": 40.1101105}, {"category": "Restaurants", "city": "Urbana Champaign, IL", "addr": "39 E Green St Champaign, IL 61820", "rating": "3.5", "imageurl": "https://s3-media4.fl.yelpcdn.com/bphoto/sYFGZzUYA3kZcGUb36Ootw/90s.jpg", "title": "K-Bowl", "lon": -88.240506, "hours": "11:00 am - 9:30 pm", "lat": 40.109988}, {"category": "Restaurants", "city": "Urbana Champaign, IL", "addr": "608 S 6th St Champaign, IL 61820", "rating": "3.5", "imageurl": "https://s3-media4.fl.yelpcdn.com/bphoto/sCVHhGOvuNon2sR7PQxl5g/90s.jpg", "title": "Seoul Taco", "lon": -88.2303911, "hours": "11:00 am - 10:00 pm", "lat": 40.1114033}, {"category": "Restaurants", "city": "Urbana Champaign, IL", "addr": "2001 S Neil St Champaign, IL 61820", "rating": "3.0", "imageurl": "https://s3-media2.fl.yelpcdn.com/bphoto/ucK19tOj4ceuii9SBz0MfQ/90s.jpg", "title": "Scotty\u2019s Brewhouse", "lon": -88.246124, "hours": "11:00 am - 11:00 pm", "lat": 40.092351}, {"category": "Restaurants", "city": "Urbana Champaign, IL", "addr": "524 E Green St Champaign, IL 61820", "rating": "4.5", "imageurl": "https://s3-media1.fl.yelpcdn.com/bphoto/dUTTo9xHaftOkT3NJYusEA/90s.jpg", "title": "Caffe Bene", "lon": -88.2309392, "hours": "7:00 am - 11:00 pm", "lat": 40.1106361}, {"category": "Restaurants", "city": "Urbana Champaign, IL", "addr": "2312 W Springfield Ave Champaign, IL 61821", "rating": "3.5", "imageurl": "https://s3-media3.fl.yelpcdn.com/bphoto/k9ZyQFHhddvhMEhyeJcCEA/90s.jpg", "title": "My Thai", "lon": -88.2858967781067, "hours": "11:00 am - 3:00 pm\n4:30 pm - 9:30 pm", "lat": 40.1130999636379}, {"category": "Restaurants", "city": "Urbana Champaign, IL", "addr": "204 N. Country Fair Dr Champaign, IL 61821", "rating": "3.5", "imageurl": "https://s3-media3.fl.yelpcdn.com/bphoto/I2xGNwCFxum42GP8HrThzw/90s.jpg", "title": "Texas Roadhouse", "lon": -88.2810949, "hours": "4:00 pm - 10:00 pm", "lat": 40.117932}, {"category": "Restaurants", "city": "Urbana Champaign, IL", "addr": "601 S 6th St Ste 102 Champaign, IL 61820", "rating": "3.0", "imageurl": "https://s3-media4.fl.yelpcdn.com/bphoto/SzRWgvK1WHH_HE0jXiGVpA/90s.jpg", "title": "Ozu Ramen", "lon": -88.230602, "hours": "12:00 pm - 3:00 pm\n5:00 pm - 8:00 pm", "lat": 40.111322}, {"category": "Restaurants", "city": "Urbana Champaign, IL", "addr": "101 W University Ave Urbana, IL 61801", "rating": "3.5", "imageurl": "https://s3-media2.fl.yelpcdn.com/bphoto/V9TdZKQaw-4tIo2tOJ0MzQ/90s.jpg", "title": "Lil Porgy\u2019s Bar-B-Que", "lon": -88.207915, "hours": "N/A - N/A", "lat": 40.116214}, {"category": "Restaurants", "city": "Urbana Champaign, IL", "addr": "419 N Neil St Champaign, IL 61820", "rating": "4.0", "imageurl": "https://s3-media2.fl.yelpcdn.com/bphoto/6EyJ6D-xZjLBoocuoDdAig/90s.jpg", "title": "Bentley\u2019s Pub", "lon": -88.243878, "hours": "3:00 pm - 2:00 am", "lat": 40.119931}, {"category": "Restaurants", "city": "Urbana Champaign, IL", "addr": "403 E Green St Champaign, IL 61820", "rating": "3.5", "imageurl": "https://s3-media2.fl.yelpcdn.com/bphoto/ye2hnbFYoa_-xf-nrLCuHg/90s.jpg", "title": "Mandarin Wok", "lon": -88.2329249, "hours": "11:00 am - 9:30 pm", "lat": 40.1101671}, {"category": "Restaurants", "city": "Urbana Champaign, IL", "addr": "905 S Goodwin Ave Bevier Hall, Rm 298 Urbana, IL 61801", "rating": "4.5", "imageurl": "https://s3-media1.fl.yelpcdn.com/bphoto/6oZ-gpsvSmNGszcvVc-3Qw/90s.jpg", "title": "Bevier Cafe", "lon": -88.2246853, "hours": "8:00 am - 11:00 am\n11:30 am - 2:30 pm", "lat": 40.1047765}, {"category": "Restaurants", "city": "Urbana Champaign, IL", "addr": "201 N Neil St Champaign, IL 61820", "rating": "3.0", "imageurl": "https://s3-media2.fl.yelpcdn.com/bphoto/azt40UyYxrNUXW4XawICTw/90s.jpg", "title": "Hamilton Walker\u2019s", "lon": -88.243875, "hours": "11:00 am - 10:00 pm", "lat": 40.117491}, {"category": "Restaurants", "city": "Urbana Champaign, IL", "addr": "607 S Wright St Champaign, IL 61820", "rating": "3.5", "imageurl": "https://s3-media4.fl.yelpcdn.com/bphoto/GMtV-l-cmXnSEw43gATzHQ/90s.jpg", "title": "A-Ri-Rang", "lon": -88.2290795, "hours": "11:00 am - 9:30 pm", "lat": 40.1112117}, {"category": "Restaurants", "city": "Urbana Champaign, IL", "addr": "630 S 5th St Champaign, IL 61820", "rating": "5.0", "imageurl": "https://s3-media4.fl.yelpcdn.com/bphoto/cPP541pjMoyjR5B-o42yTQ/90s.jpg", "title": "BrewLab Coffee", "lon": -88.2320542, "hours": "8:00 am - 9:00 pm", "lat": 40.1106891}, {"category": "Restaurants", "city": "Urbana Champaign, IL", "addr": "202 S 1st St Champaign, IL 61820", "rating": "5.0", "imageurl": "https://s3-media4.fl.yelpcdn.com/bphoto/pLXQuo-s9Y6SDKQPXyukaQ/90s.jpg", "title": "Flying Machine Avionics", "lon": -88.2384271, "hours": "7:00 am - 9:00 pm", "lat": 40.1152076}, {"category": "Restaurants", "city": "Urbana Champaign, IL", "addr": "723 S Neil St Champaign, IL 61820", "rating": "3.0", "imageurl": "https://s3-media1.fl.yelpcdn.com/bphoto/xQth4_c6N5ZqxFvZ-_HWGA/90s.jpg", "title": "El Toro Mexican Restaurant", "lon": -88.2438972, "hours": "11:00 am - 10:00 pm", "lat": 40.1070836}, {"category": "Restaurants", "city": "Urbana Champaign, IL", "addr": "302 S Neil St Champaign, IL 61820", "rating": "4.0", "imageurl": "https://s3-media4.fl.yelpcdn.com/bphoto/zmvcPIihiIa5O44W0dBjnQ/90s.jpg", "title": "Tumble Inn Tavern", "lon": -88.243041, "hours": "7:00 am - 2:00 pm", "lat": 40.113786}, {"category": "Restaurants", "city": "Urbana Champaign, IL", "addr": "S Lincoln Ave & W Florida Ave Urbana, IL 61801", "rating": "4.5", "imageurl": "https://s3-media4.fl.yelpcdn.com/bphoto/1AD_bIp7nEhArUc_QoNw_g/90s.jpg", "title": "University Of Illinois Arboretum", "lon": -88.2191139, "hours": "N/A - N/A", "lat": 40.098168}, {"category": "Restaurants", "city": "Urbana Champaign, IL", "addr": "607 N Cunningham Ave Urbana, IL 61802", "rating": "4.5", "imageurl": "https://s3-media2.fl.yelpcdn.com/bphoto/cCWd6HK1myOG1ZMeGSIzOA/90s.jpg", "title": "Taco Motorizado", "lon": -88.2041131, "hours": "10:00 am - 8:00 pm", "lat": 40.1186156}, {"category": "Restaurants", "city": "Urbana Champaign, IL", "addr": "1117 W Oregon St Urbana, IL 61801", "rating": "3.5", "imageurl": "https://s3-media4.fl.yelpcdn.com/bphoto/KNx0GtOmX2OCGjIRBdMaRQ/90s.jpg", "title": "Espresso Royale", "lon": -88.223685609087, "hours": "7:00 am - 12:00 am", "lat": 40.106851492384}, {"category": "Restaurants", "city": "Urbana Champaign, IL", "addr": "110 N Neil St Champaign, IL 61820", "rating": "4.0", "imageurl": "https://s3-media4.fl.yelpcdn.com/bphoto/HdO02_B6EHduiDKE9AON0A/90s.jpg", "title": "Quality Beer", "lon": -88.243357431404, "hours": "3:00 pm - 2:00 am", "lat": 40.116827656986}, {"category": "Restaurants", "city": "Urbana Champaign, IL", "addr": "2306 N Prospect Ave Champaign, IL 61822", "rating": "3.5", "imageurl": "https://s3-media4.fl.yelpcdn.com/bphoto/slAFA_u4kepwvGPd9GXRow/90s.jpg", "title": "Portillo\u2019s", "lon": -88.2570338621736, "hours": "10:30 am - 10:30 pm", "lat": 40.1442010834415}, {"category": "Restaurants", "city": "Urbana Champaign, IL", "addr": "2 E Main St Champaign, IL 61820", "rating": "3.0", "imageurl": "https://s3-media3.fl.yelpcdn.com/bphoto/F3gP2mw-24eM7yTDiTsQuQ/90s.jpg", "title": "Guido\u2019s Bar & Grill", "lon": -88.2433013916016, "hours": "11:00 am - 2:00 am", "lat": 40.117862701416}, {"category": "Restaurants", "city": "Urbana Champaign, IL", "addr": "611 E Green St Ste A Champaign, IL 61820", "rating": "3.5", "imageurl": "https://s3-media3.fl.yelpcdn.com/bphoto/T3gfH7htG5eXnsrMsJP0jw/90s.jpg", "title": "Mr. Kyoto", "lon": -88.2297856360674, "hours": "10:45 am - 11:00 pm", "lat": 40.1104378577129}, {"category": "Restaurants", "city": "Urbana Champaign, IL", "addr": "512 S Neil St Champaign, IL 61820", "rating": "3.5", "imageurl": "https://s3-media3.fl.yelpcdn.com/bphoto/uHz2dBzg9VmSYrlo2qBCDA/90s.jpg", "title": "Jet\u2019s Pizza", "lon": -88.242885, "hours": "10:00 am - 11:00 pm", "lat": 40.110655}, {"category": "Restaurants", "city": "Urbana Champaign, IL", "addr": "905 S Neil St Champaign, IL 61820", "rating": "3.5", "imageurl": "https://s3-media3.fl.yelpcdn.com/bphoto/HP842G_fJlHMPYzoG1XvPA/90s.jpg", "title": "Good Fella Korean Bistro", "lon": -88.2438923, "hours": "11:00 am - 9:00 pm", "lat": 40.1051831}, {"category": "Restaurants", "city": "Urbana Champaign, IL", "addr": "410 E Green St Ste 1 Champaign, IL 61820", "rating": "3.5", "imageurl": "https://s3-media4.fl.yelpcdn.com/bphoto/44jKESW4JYr-Ag830CPa-Q/90s.jpg", "title": "Empire Chinese Restaurant", "lon": -88.2324833, "hours": "11:00 am - 10:30 pm", "lat": 40.1106376}, {"category": "Restaurants", "city": "Urbana Champaign, IL", "addr": "100 N Chestnut St Champaign, IL 61820", "rating": "4.0", "imageurl": "https://s3-media3.fl.yelpcdn.com/bphoto/ZiSVGI6gtcss6uJAg3tFow/90s.jpg", "title": "Maize at the Station", "lon": -88.2406103610992, "hours": "11:00 am - 2:00 pm\n5:00 pm - 9:00 pm", "lat": 40.1168537097827}, {"category": "Restaurants", "city": "Urbana Champaign, IL", "addr": "502 E John St Champaign, IL 61820", "rating": "3.0", "imageurl": "https://s3-media1.fl.yelpcdn.com/bphoto/LCu6gKeg0X8yoLaNkrxJMA/90s.jpg", "title": "Fat Sandwich Company", "lon": -88.2315641, "hours": "11:00 am - 3:00 am", "lat": 40.1092381}, {"category": "Restaurants", "city": "Urbana Champaign, IL", "addr": "202 E University Ave Ste C Urbana, IL 61801", "rating": "4.0", "imageurl": "https://s3-media3.fl.yelpcdn.com/bphoto/tgI6Lkq18XtWPNJOFFjKgA/90s.jpg", "title": "Po\u2019 Boys Restaurant", "lon": -88.2058742, "hours": "11:00 am - 8:00 pm", "lat": 40.1176953}, {"category": "Restaurants", "city": "Urbana Champaign, IL", "addr": "1900 S First St Champaign, IL 61820", "rating": "3.0", "imageurl": "https://s3-media4.fl.yelpcdn.com/bphoto/fqY_PzFLtFZ6a3-CONQT_A/90s.jpg", "title": "Houlihan\u2019s", "lon": -88.2377565934386, "hours": "6:30 am - 10:00 am\n11:00 am - 10:00 pm", "lat": 40.0938755446946}, {"category": "Restaurants", "city": "Urbana Champaign, IL", "addr": "1401 Grandview Dr Champaign, IL 61820", "rating": "4.5", "imageurl": "https://s3-media3.fl.yelpcdn.com/bphoto/d_NVWhr7sROgWXOsyucRCA/90s.jpg", "title": "Hessel Park", "lon": -88.250542367078, "hours": "N/A - N/A", "lat": 40.100117080479}, {"category": "Restaurants", "city": "Urbana Champaign, IL", "addr": "115 S Walnut St Champaign, IL 61820", "rating": "4.0", "imageurl": "https://s3-media3.fl.yelpcdn.com/bphoto/0VpWDgRIghSjHLzBrU-bbw/90s.jpg", "title": "Walnut Street Tea", "lon": -88.2432021593636, "hours": "10:00 am - 6:00 pm", "lat": 40.1154721496324}, {"category": "Restaurants", "city": "Urbana Champaign, IL", "addr": "208 W Main St Urbana, IL 61801", "rating": "3.5", "imageurl": "https://s3-media4.fl.yelpcdn.com/bphoto/0zpb4Chxm6oPRg6mywK6PA/90s.jpg", "title": "Pizza M", "lon": -88.2093142, "hours": "11:00 am - 9:00 pm", "lat": 40.112655}, {"category": "Restaurants", "city": "Urbana Champaign, IL", "addr": "616 E Green St Champaign, IL 61820", "rating": "3.0", "imageurl": "https://s3-media2.fl.yelpcdn.com/bphoto/DH08eau9kABK8jGJEHQQmA/90s.jpg", "title": "Spoon House Korean Kitchen", "lon": -88.2296313, "hours": "10:30 am - 9:00 pm", "lat": 40.1106295}, {"category": "Restaurants", "city": "Urbana Champaign, IL", "addr": "807 S Lincoln Ave Urbana, IL 61801", "rating": "4.0", "imageurl": "https://s3-media2.fl.yelpcdn.com/bphoto/a595gqI-ixcDtxBkr65Lnw/90s.jpg", "title": "Jimmy John\u2019s", "lon": -88.2194246, "hours": "10:00 am - 3:00 am", "lat": 40.1055585}, {"category": "Restaurants", "city": "Urbana Champaign, IL", "addr": "34 E Main St Champaign, IL 61820", "rating": "3.5", "imageurl": "https://s3-media1.fl.yelpcdn.com/bphoto/I6xBaMV9VCgMrI_CyL3QVQ/90s.jpg", "title": "Barrelhouse 34", "lon": -88.241975, "hours": "3:00 pm - 2:00 am", "lat": 40.117537}, {"category": "Restaurants", "city": "Urbana Champaign, IL", "addr": "119 W Water St Urbana, IL 61801", "rating": "4.0", "imageurl": "https://s3-media1.fl.yelpcdn.com/bphoto/Ec8y7L6BGejsnd9XfZ9qeA/90s.jpg", "title": "Bunny\u2019s Tavern", "lon": -88.2083041, "hours": "11:00 am - 2:00 am", "lat": 40.1131915}, {"category": "Restaurants", "city": "Urbana Champaign, IL", "addr": "1007 W University Ave Urbana, IL 61801", "rating": "3.5", "imageurl": "https://s3-media3.fl.yelpcdn.com/bphoto/xJ40J_DOgDnYml2DGPEkig/90s.jpg", "title": "Niro\u2019s Gyros", "lon": -88.2216497, "hours": "11:00 am - 12:00 am", "lat": 40.1161419}, {"category": "Restaurants", "city": "Urbana Champaign, IL", "addr": "701 S Gregory St Ste F Urbana, IL 61801", "rating": "3.5", "imageurl": "https://s3-media4.fl.yelpcdn.com/bphoto/tt_5tLHqAf443z5HAXkh0Q/90s.jpg", "title": "Kofusion", "lon": -88.2217281018343, "hours": "11:00 am - 8:30 pm", "lat": 40.1068226779779}, {"category": "Restaurants", "city": "Urbana Champaign, IL", "addr": "404 E Green St Champaign, IL 61820", "rating": "4.0", "imageurl": "https://s3-media4.fl.yelpcdn.com/bphoto/yhguHHd-uZbJmmQW8LzQrw/90s.jpg", "title": "Jurassic Grill", "lon": -88.2331177, "hours": "11:00 am - 10:00 pm", "lat": 40.1104696}, {"category": "Restaurants", "city": "Urbana Champaign, IL", "addr": "604 E Daniel St Champaign, IL 61820", "rating": "3.0", "imageurl": "https://s3-media2.fl.yelpcdn.com/bphoto/5ZK-8hMg9J6vlVTiYJ-E4w/90s.jpg", "title": "Home of Gourmet Chinese & Thai Restaurant", "lon": -88.2300156, "hours": "11:00 am - 10:00 pm", "lat": 40.108116}, {"category": "Restaurants", "city": "Urbana Champaign, IL", "addr": "1109 W Windsor Champaign, IL 61821", "rating": "4.0", "imageurl": "https://s3-media1.fl.yelpcdn.com/bphoto/_iow0eOxT80prFAJmAdk5A/90s.jpg", "title": "Green Jade", "lon": -88.264383583259, "hours": "10:30 am - 10:00 pm", "lat": 40.0833851146411}, {"category": "Restaurants", "city": "Urbana Champaign, IL", "addr": "528 E Green St Ste 101 Champaign, IL 61820", "rating": "3.0", "imageurl": "https://s3-media3.fl.yelpcdn.com/bphoto/A1Zj353fo1Gwvu-OlaEu0w/90s.jpg", "title": "Chipotle Mexican Grill", "lon": -88.2306922227144, "hours": "10:45 am - 11:00 pm", "lat": 40.1103747782313}, {"category": "Restaurants", "city": "Urbana Champaign, IL", "addr": "1333 Savoy Plaza Ln Ste 8 Savoy, IL 61874", "rating": "3.5", "imageurl": "https://s3-media1.fl.yelpcdn.com/bphoto/uaFYbTuajYpoN_udxyP2kA/90s.jpg", "title": "Smoky\u2019s House BBQ", "lon": -88.251738198157, "hours": "11:00 am - 9:00 pm", "lat": 40.0713235718975}, {"category": "Restaurants", "city": "Urbana Champaign, IL", "addr": "1103 W Oregon St Urbana, IL 61801", "rating": "3.5", "imageurl": "https://s3-media2.fl.yelpcdn.com/bphoto/e_FiMMAWkLqEuMlmrQ2VtA/90s.jpg", "title": "Merry Ann\u2019s Diner", "lon": -88.2218579, "hours": "Open 24 hours", "lat": 40.1068411}, {"category": "Restaurants", "city": "Urbana Champaign, IL", "addr": "1001 S Wright St Champaign, IL 61820", "rating": "3.5", "imageurl": "https://s3-media4.fl.yelpcdn.com/bphoto/mBCDyfrwsRyM2cw3ok5XQg/90s.jpg", "title": "The Y Eatery", "lon": -88.22929, "hours": "10:00 am - 4:30 pm", "lat": 40.1065381}, {"category": "Restaurants", "city": "Urbana Champaign, IL", "addr": "2521 Village Green Pl Champaign, IL 61822", "rating": "3.5", "imageurl": "https://s3-media4.fl.yelpcdn.com/bphoto/38dUwJoXVodfaZYYD3jurw/90s.jpg", "title": "Billy Barooz Bar & Grill", "lon": -88.296709, "hours": "11:00 am - 12:00 am", "lat": 40.081322}, {"category": "Restaurants", "city": "Urbana Champaign, IL", "addr": "701 S Gregory St Urbana, IL 61803", "rating": "3.0", "imageurl": "https://s3-media3.fl.yelpcdn.com/bphoto/UklLMBtjtK0usMTdK-CgRA/90s.jpg", "title": "Basil Thai Urbana", "lon": -88.2217353, "hours": "11:00 am - 9:30 pm", "lat": 40.1065482}, {"category": "Restaurants", "city": "Urbana Champaign, IL", "addr": "Windsor Rd And Race St Urbana, IL 61801", "rating": "5.0", "imageurl": "https://s3-media4.fl.yelpcdn.com/bphoto/c2Ocs0g1Ehh19BG8DsxQrg/90s.jpg", "title": "Meadowbrook Park", "lon": -88.2120315, "hours": "N/A - N/A", "lat": 40.1059233}, {"category": "Restaurants", "city": "Urbana Champaign, IL", "addr": "1114 N Market St Champaign, IL 61820", "rating": "4.0", "imageurl": "https://s3-media1.fl.yelpcdn.com/bphoto/N5e9k0d-Pkzb73JK2sH5Hw/90s.jpg", "title": "Big J J Fish & Chicken", "lon": -88.2386034, "hours": "10:30 am - 11:00 pm", "lat": 40.1269433}, {"category": "Restaurants", "city": "Urbana Champaign, IL", "addr": "601 S 1st St Ste 102 Champaign, IL 61820", "rating": "3.0", "imageurl": "https://s3-media3.fl.yelpcdn.com/bphoto/6XduaQouPUT2p5d55J1CBw/90s.jpg", "title": "The Hub Champaign", "lon": -88.2391289, "hours": "4:00 pm - 10:00 pm", "lat": 40.1111448}, {"category": "Restaurants", "city": "Urbana Champaign, IL", "addr": "605 S Wright St Champaign, IL 61820", "rating": "3.0", "imageurl": "https://s3-media1.fl.yelpcdn.com/bphoto/6TWYRmIizwL0eEZirWPWjA/90s.jpg", "title": "Ambar India", "lon": -88.228907, "hours": "11:00 am - 10:00 pm", "lat": 40.1113654}, {"category": "Restaurants", "city": "Urbana Champaign, IL", "addr": "202 E Green St Ste 1 Champaign, IL 61820", "rating": "3.0", "imageurl": "https://s3-media3.fl.yelpcdn.com/bphoto/2w_wnwvn4AEYoBIWbzKlTg/90s.jpg", "title": "Chopstix", "lon": -88.2366661, "hours": "4:00 pm - 3:00 am", "lat": 40.1105234}, {"category": "Restaurants", "city": "Urbana Champaign, IL", "addr": "2501 N Prospect Ave Champaign, IL 61822", "rating": "3.0", "imageurl": "https://s3-media3.fl.yelpcdn.com/bphoto/2LMm4Xllf1gC6m9JBY7S9A/90s.jpg", "title": "Oishi", "lon": -88.258478, "hours": "11:00 am - 9:00 pm", "lat": 40.1451075}, {"category": "Restaurants", "city": "Urbana Champaign, IL", "addr": "1411 S Neil St Champaign, IL 61821", "rating": "3.0", "imageurl": "https://s3-media3.fl.yelpcdn.com/bphoto/STJ3fvOX3s7qIirwgHSTmg/90s.jpg", "title": "Espresso Royale", "lon": -88.2448316, "hours": "6:30 am - 10:00 pm", "lat": 40.0994856}, {"category": "Restaurants", "city": "Urbana Champaign, IL", "addr": "113 Calvin St Savoy, IL 61874", "rating": "4.0", "imageurl": "https://s3-media2.fl.yelpcdn.com/bphoto/6UqEGVOk5c1iKDgJh7kCEQ/90s.jpg", "title": "I Wok", "lon": -88.2522375155313, "hours": "10:30 am - 10:00 pm", "lat": 40.0590115158189}, {"category": "Restaurants", "city": "Urbana Champaign, IL", "addr": "502 E John St Champaign, IL 61820", "rating": "3.5", "imageurl": "https://s3-media4.fl.yelpcdn.com/bphoto/PVK0Ji2z-vH5a2y31IOl0g/90s.jpg", "title": "Asian Taste Restaurant", "lon": -88.2313949614763, "hours": "11:00 am - 8:00 pm", "lat": 40.1092811348301}, {"category": "Restaurants", "city": "Urbana Champaign, IL", "addr": "608 E University Ave Champaign, IL 61820", "rating": "4.0", "imageurl": "https://s3-media1.fl.yelpcdn.com/bphoto/ptQFH-oMULCa4GJ3cTky-g/90s.jpg", "title": "Hammerhead Coffee", "lon": -88.229487, "hours": "7:30 am - 8:00 pm", "lat": 40.116659}, {"category": "Restaurants", "city": "Urbana Champaign, IL", "addr": "1 E Main St Champaign, IL 61820", "rating": "3.0", "imageurl": "https://s3-media3.fl.yelpcdn.com/bphoto/FZx-Q3ucNxl0vpevc0hsqw/90s.jpg", "title": "Merry Ann\u2019s Diner", "lon": -88.2428999080116, "hours": "Open 24 hours", "lat": 40.1181331447692}, {"category": "Restaurants", "city": "Urbana Champaign, IL", "addr": "1206 N Mattis Ave Champaign, IL 61821", "rating": "3.5", "imageurl": "https://s3-media1.fl.yelpcdn.com/bphoto/4e73nls6Eldo9fs7y9d4fQ/90s.jpg", "title": "Sammy\u2019s Pancake House", "lon": -88.276612, "hours": "N/A - N/A", "lat": 40.1286237}, {"category": "Restaurants", "city": "Urbana Champaign, IL", "addr": "510 E John St Champaign, IL 61820", "rating": "3.5", "imageurl": "https://s3-media3.fl.yelpcdn.com/bphoto/uLIax7KdtUWIQFzJHR6ZnA/90s.jpg", "title": "Kung Fu BBQ", "lon": -88.2308592, "hours": "10:30 am - 9:00 pm", "lat": 40.1093708}, {"category": "Restaurants", "city": "Urbana Champaign, IL", "addr": "2001 W Springfield Ave Champaign, IL 61821", "rating": "3.5", "imageurl": "https://s3-media4.fl.yelpcdn.com/bphoto/xsHZaa8sy4G3aJZu_aDGJg/90s.jpg", "title": "Niro\u2019s Gyros", "lon": -88.2804412, "hours": "N/A - N/A", "lat": 40.1125121}, {"category": "Restaurants", "city": "Urbana Champaign, IL", "addr": "204 W Main St Urbana, IL 61801", "rating": "4.5", "imageurl": "https://s3-media3.fl.yelpcdn.com/bphoto/MBaqg2ki6XErXHJz_wTRBQ/90s.jpg", "title": "Sipyard", "lon": -88.2091920932547, "hours": "4:30 pm - 9:00 pm", "lat": 40.1125736143422}, {"category": "Restaurants", "city": "Urbana Champaign, IL", "addr": "3902 S Duncan Rd Champaign, IL 61822", "rating": "3.5", "imageurl": "https://s3-media1.fl.yelpcdn.com/bphoto/8OajLq0WitYJdtWQ3kzuVg/90s.jpg", "title": "Curtis Orchard & Pumpkin Patch", "lon": -88.2950162887573, "hours": "9:00 am - 6:00 pm", "lat": 40.0634243532044}, {"category": "Restaurants", "city": "Urbana Champaign, IL", "addr": "601 S Wright St Champaign, IL 61820", "rating": "3.5", "imageurl": "https://s3-media1.fl.yelpcdn.com/bphoto/muXRY2YXbX99sp91xqlvYg/90s.jpg", "title": "Jerusalem Middle Eastern Cuisine", "lon": -88.229192, "hours": "9:00 am - 8:00 pm", "lat": 40.1112668}, {"category": "Restaurants", "city": "Urbana Champaign, IL", "addr": "619 S Wright St Champaign, IL 61820", "rating": "3.5", "imageurl": "https://s3-media4.fl.yelpcdn.com/bphoto/4kLYM6QuRXFyZ47JUjAiTQ/90s.jpg", "title": "Sushi Ichiban", "lon": -88.2291491, "hours": "11:00 am - 9:30 pm", "lat": 40.1108158}, {"category": "Restaurants", "city": "Urbana Champaign, IL", "addr": "1805 Philo Rd Urbana, IL 61802", "rating": "4.0", "imageurl": "https://s3-media2.fl.yelpcdn.com/bphoto/TBCuEs4PaDbuM-QjpCcIrA/90s.jpg", "title": "First Wok", "lon": -88.1920978, "hours": "10:30 am - 10:30 pm", "lat": 40.0962948}, {"category": "Restaurants", "city": "Urbana Champaign, IL", "addr": "25 E Springfield Ave Champaign, IL 61820", "rating": "3.5", "imageurl": "https://s3-media4.fl.yelpcdn.com/bphoto/hLrQp2s2B8YO2PZX1-rcAg/90s.jpg", "title": "South China Restaurant", "lon": -88.241292, "hours": "11:00 am - 10:00 pm", "lat": 40.112114}, {"category": "Restaurants", "city": "Urbana Champaign, IL", "addr": "2610 N Prospect Ave Champaign, IL 61822", "rating": "4.5", "imageurl": "https://s3-media4.fl.yelpcdn.com/bphoto/171RL0HgCsH0trnJMMMxYQ/90s.jpg", "title": "Blaze Fast-Fire\u2019d Pizza", "lon": -88.2547926, "hours": "N/A - N/A", "lat": 40.1469535}, {"category": "Restaurants", "city": "Urbana Champaign, IL", "addr": "33 E Green St Champaign, IL 61820", "rating": "3.0", "imageurl": "https://s3-media4.fl.yelpcdn.com/bphoto/KtkMJ14mbR9jkSLIMq5muQ/90s.jpg", "title": "DP Dough", "lon": -88.2407666, "hours": "11:00 am - 2:00 am", "lat": 40.1099064}, {"category": "Restaurants", "city": "Urbana Champaign, IL", "addr": "608 West Town Center Blvd Champaign, IL 61822", "rating": "3.5", "imageurl": "https://s3-media3.fl.yelpcdn.com/bphoto/5aIrMuHkQqRMwy--4sf6_w/90s.jpg", "title": "Super Niro Gyro", "lon": -88.2519266565382, "hours": "10:00 am - 11:00 pm", "lat": 40.1432102493435}, {"category": "Restaurants", "city": "Urbana Champaign, IL", "addr": "6 E Taylor St Champaign, IL 61820", "rating": "3.0", "imageurl": "https://s3-media3.fl.yelpcdn.com/bphoto/4PVIs8WkScWfUb-8yPXfoQ/90s.jpg", "title": "Cowboy Monkey", "lon": -88.243133, "hours": "8:00 pm - 2:00 am", "lat": 40.1175386}, {"category": "Restaurants", "city": "Urbana Champaign, IL", "addr": "700 S Gregory St Urbana, IL 61801", "rating": "3.0", "imageurl": "https://s3-media1.fl.yelpcdn.com/bphoto/rPvWXKRVF-gi7y0uPsr3AA/90s.jpg", "title": "Caffebene", "lon": -88.2218027, "hours": "7:00 am - 11:00 pm", "lat": 40.1065109}, {"category": "Restaurants", "city": "Urbana Champaign, IL", "addr": "207 W Clark St Champaign, IL 61820", "rating": "4.0", "imageurl": "https://s3-media1.fl.yelpcdn.com/bphoto/KgrNFc_lGPohHgEljzMrXA/90s.jpg", "title": "The Clark Bar", "lon": -88.2461385, "hours": "4:00 pm - 2:00 am", "lat": 40.1150169}, {"category": "Restaurants", "city": "Urbana Champaign, IL", "addr": "503 E Green St Champaign, IL 61820", "rating": "3.5", "imageurl": "https://s3-media4.fl.yelpcdn.com/bphoto/JuZvqV_qEEWgOE7evokmEg/90s.jpg", "title": "Starbucks", "lon": -88.2317182, "hours": "6:30 am - 12:00 am", "lat": 40.1100452}, {"category": "Restaurants", "city": "Urbana Champaign, IL", "addr": "601 S 6th St Ste 106 Champaign, IL 61820", "rating": "4.5", "imageurl": "https://s3-media1.fl.yelpcdn.com/bphoto/6acfRRJqBVuMeZAtb_lbSQ/90s.jpg", "title": "Paris Super Crepes", "lon": -88.2305908, "hours": "12:00 pm - 11:00 pm", "lat": 40.1112889}, {"category": "Restaurants", "city": "Urbana Champaign, IL", "addr": "1335 Savoy Plaza Drive Savoy, IL 61874", "rating": "3.0", "imageurl": "https://s3-media1.fl.yelpcdn.com/bphoto/zbLdRpXubAXznBVq4yAYww/90s.jpg", "title": "Buffalo Wild Wings", "lon": -88.2512855529785, "hours": "11:00 am - 12:00 am", "lat": 40.0701899852104}, {"category": "Restaurants", "city": "Urbana Champaign, IL", "addr": "621 E Green St Champaign, IL 61820", "rating": "3.0", "imageurl": "https://s3-media2.fl.yelpcdn.com/bphoto/QdR_mHapzvcUXcFyCFGCqw/90s.jpg", "title": "Sushi Rock", "lon": -88.229494, "hours": "11:00 am - 2:30 pm\n5:00 pm - 9:00 pm", "lat": 40.1100643}, {"category": "Restaurants", "city": "Urbana Champaign, IL", "addr": "528 E Green Champaign, IL 61820", "rating": "3.0", "imageurl": "https://s3-media3.fl.yelpcdn.com/bphoto/SO03YukR3LScJ7oS29MWDg/90s.jpg", "title": "Noodles & Company", "lon": -88.2306324, "hours": "11:00 am - 10:00 pm", "lat": 40.1105017}, {"category": "Restaurants", "city": "Urbana Champaign, IL", "addr": "401 N Broadway Ave Urbana, IL 61801", "rating": "4.5", "imageurl": "https://s3-media2.fl.yelpcdn.com/bphoto/QKpPr2bshNs1lY5GJy5Uig/90s.jpg", "title": "Broadway Food Hall", "lon": -88.2081494, "hours": "8:00 am - 3:00 pm", "lat": 40.1152246}, {"category": "Restaurants", "city": "Urbana Champaign, IL", "addr": "408 E Green St Champaign, IL 61820", "rating": "4.0", "imageurl": "https://s3-media4.fl.yelpcdn.com/bphoto/xZgg7nU2nG76-3ggjYjqvg/90s.jpg", "title": "Burrito King", "lon": -88.2327902, "hours": "11:00 am - 11:00 pm", "lat": 40.1103801}, {"category": "Restaurants", "city": "Urbana Champaign, IL", "addr": "202 W Anthony Dr Champaign, IL 61821", "rating": "3.0", "imageurl": "https://s3-media3.fl.yelpcdn.com/bphoto/-0PeVBFa_FBqk_MVGpiu6Q/90s.jpg", "title": "Alexander\u2019s Steakhouse", "lon": -88.245076, "hours": "4:00 pm - 9:00 pm", "lat": 40.136796}, {"category": "Restaurants", "city": "Urbana Champaign, IL", "addr": "608 E University Ave Ste 105 Champaign, IL 61820", "rating": "3.5", "imageurl": "https://s3-media3.fl.yelpcdn.com/bphoto/MClcEUcDtZTydIof5kOvAw/90s.jpg", "title": "Lao Sze Chuan Champaign", "lon": -88.229487, "hours": "11:00 am - 9:30 pm", "lat": 40.116659}, {"category": "Restaurants", "city": "Urbana Champaign, IL", "addr": "2037 S Neil St Champaign, IL 61820", "rating": "3.0", "imageurl": "https://s3-media4.fl.yelpcdn.com/bphoto/2P981JDy-iHAGxlYa_i8eg/90s.jpg", "title": "Slim Chickens", "lon": -88.2463795, "hours": "10:30 am - 11:00 pm", "lat": 40.0905314}, {"category": "Restaurants", "city": "Urbana Champaign, IL", "addr": "1105 Windsor Rd Champaign, IL 61821", "rating": "4.5", "imageurl": "https://s3-media1.fl.yelpcdn.com/bphoto/Vq1VTSNIHx9ld-Fg5Sg-zg/90s.jpg", "title": "Pandamonium Doughnuts", "lon": -88.2641704987583, "hours": "7:00 am - 2:00 pm", "lat": 40.0832677848541}, {"category": "Restaurants", "city": "Urbana Champaign, IL", "addr": "1709 S Neil St Champaign, IL 61820", "rating": "2.5", "imageurl": "https://s3-media3.fl.yelpcdn.com/bphoto/_bQDdy1Z0bgLL8yAUCaqZQ/90s.jpg", "title": "Steak \u2018n Shake", "lon": -88.245852, "hours": "Open 24 hours", "lat": 40.0949565}, {"category": "Restaurants", "city": "Urbana Champaign, IL", "addr": "711 S 6th St Champaign, IL 61820", "rating": "2.5", "imageurl": "https://s3-media1.fl.yelpcdn.com/bphoto/HkseZpoiH65BMO5olvGnDg/90s.jpg", "title": "Evo Cafe", "lon": -88.2306035, "hours": "11:00 am - 9:30 pm", "lat": 40.1094391}, {"category": "Restaurants", "city": "Urbana Champaign, IL", "addr": "505 S Chestnut St Champaign, IL 61820", "rating": "4.5", "imageurl": "https://s3-media1.fl.yelpcdn.com/bphoto/YqLFns6kNvh21v-tMIao5A/90s.jpg", "title": "Fat City Bar and Grill", "lon": -88.242733, "hours": "11:00 am - 2:00 am", "lat": 40.110967}, {"category": "Restaurants", "city": "Urbana Champaign, IL", "addr": "115 S 1st St Champaign, IL 61820", "rating": "3.0", "imageurl": "https://s3-media3.fl.yelpcdn.com/bphoto/7o9FenNIb8ABokJdWFE1rA/90s.jpg", "title": "Manzella\u2019s Italian Patio Restaurant", "lon": -88.23873, "hours": "11:00 am - 1:30 pm\n5:00 pm - 8:30 pm", "lat": 40.1159}, {"category": "Restaurants", "city": "Urbana Champaign, IL", "addr": "706 S 5th St Champaign, IL 61820", "rating": "3.0", "imageurl": "https://s3-media4.fl.yelpcdn.com/bphoto/hAWNC1xMRwaQz9pbf5lwaA/90s.jpg", "title": "Joe\u2019s Brewery", "lon": -88.2317829, "hours": "11:00 am - 2:00 am", "lat": 40.109713}, {"category": "Restaurants", "city": "Urbana Champaign, IL", "addr": "1503 Lyndhurst Aly Savoy, IL 61874", "rating": "3.5", "imageurl": "https://s3-media4.fl.yelpcdn.com/bphoto/9_hCIg9u9PGE8vHs8Yg5dw/90s.jpg", "title": "Star Karaoke", "lon": -88.2508354714975, "hours": "N/A - N/A", "lat": 40.073324983297}, {"category": "Restaurants", "city": "Urbana Champaign, IL", "addr": "901 W University Ave Urbana, IL 61801", "rating": "3.5", "imageurl": "https://s3-media2.fl.yelpcdn.com/bphoto/nolPh03B3nPp0MP7aQEEIA/90s.jpg", "title": "Einstein Bros Bagels", "lon": -88.2197603, "hours": "6:00 am - 5:00 pm", "lat": 40.1161317}, {"category": "Restaurants", "city": "Urbana Champaign, IL", "addr": "2511 Village Green Pl Champaign, IL 61822", "rating": "3.0", "imageurl": "https://s3-media4.fl.yelpcdn.com/bphoto/JhhrG_XUoyICg6gJnrIndw/90s.jpg", "title": "Jupiter\u2019s Pizzeria and Billards", "lon": -88.2963437, "hours": "11:00 am - 2:00 am", "lat": 40.0815042}, {"category": "Restaurants", "city": "Urbana Champaign, IL", "addr": "1901 N Prospect Ave Champaign, IL 61822", "rating": "3.0", "imageurl": "https://s3-media2.fl.yelpcdn.com/bphoto/FmwD1fPi6zLXYggmnmp2UQ/90s.jpg", "title": "Red Lobster", "lon": -88.2586279, "hours": "11:00 am - 10:00 pm", "lat": 40.1384284}, {"category": "Restaurants", "city": "Urbana Champaign, IL", "addr": "613 E Green St Champaign, IL 61820", "rating": "3.0", "imageurl": "https://s3-media1.fl.yelpcdn.com/bphoto/rCtnWtriXqWkQmYijdz5jQ/90s.jpg", "title": "Brothers Bar & Grill", "lon": -88.229688, "hours": "7:00 pm - 2:00 am", "lat": 40.1101891}, {"category": "Restaurants", "city": "Urbana Champaign, IL", "addr": "1706 State St Champaign, IL 61820", "rating": "2.5", "imageurl": "https://s3-media4.fl.yelpcdn.com/bphoto/7duc_ISRZ8I1EYzfVOtCNg/90s.jpg", "title": "Hooters", "lon": -88.246253, "hours": "11:00 am - 12:00 am", "lat": 40.095434}, {"category": "Restaurants", "city": "Urbana Champaign, IL", "addr": "810 W Killarney St Urbana, IL 61801", "rating": "3.5", "imageurl": "https://s3-media2.fl.yelpcdn.com/bphoto/_rUeFTcGZEShvGOXuyU3kw/90s.jpg", "title": "Urbana Garden Family Restaurant", "lon": -88.2188183, "hours": "5:00 am - 10:00 pm", "lat": 40.1329664}, {"category": "Restaurants", "city": "Urbana Champaign, IL", "addr": "1511 W Springfield Ave Champaign, IL 61820", "rating": "3.0", "imageurl": "https://s3-media3.fl.yelpcdn.com/bphoto/HX1u_Y6QvsowfsFvHgPUNg/90s.jpg", "title": "BoBo\u2019s BBQ", "lon": -88.2715751, "hours": "11:00 am - 8:00 pm", "lat": 40.1125152}, {"category": "Restaurants", "city": "Urbana Champaign, IL", "addr": "2702 N Prospect Ave Champaign, IL 61822", "rating": "3.5", "imageurl": "https://s3-media4.fl.yelpcdn.com/bphoto/6JiewJH7jkkBiKFRtqfFaQ/90s.jpg", "title": "Starbucks", "lon": -88.2572428, "hours": "5:00 am - 10:00 pm", "lat": 40.1481613}, {"category": "Restaurants", "city": "Urbana Champaign, IL", "addr": "301 E Green St Champaign, IL 61820", "rating": "3.0", "imageurl": "https://s3-media2.fl.yelpcdn.com/bphoto/7_DSe5pir9RGW2ptrwymRw/90s.jpg", "title": "Wingin Out", "lon": -88.2351409, "hours": "4:00 pm - 3:00 am", "lat": 40.1099627}, {"category": "Restaurants", "city": "Urbana Champaign, IL", "addr": "602 E Daniel St Champaign, IL 61820", "rating": "3.0", "imageurl": "https://s3-media2.fl.yelpcdn.com/bphoto/BygS6dY_v0Vel_A6OhF5dA/90s.jpg", "title": "Espresso Royale", "lon": -88.2301738, "hours": "7:00 am - 12:00 am", "lat": 40.1081191}, {"category": "Restaurants", "city": "Urbana Champaign, IL", "addr": "1910 N Neil St Champaign, IL 61820", "rating": "3.0", "imageurl": "https://s3-media4.fl.yelpcdn.com/bphoto/npfNBcoEzYRGVw5kjvtZJw/90s.jpg", "title": "Old Chicago", "lon": -88.243786, "hours": "11:00 am - 11:00 pm", "lat": 40.139794}, {"category": "Restaurants", "city": "Urbana Champaign, IL", "addr": "1312 W Church St Champaign, IL 61821", "rating": "4.0", "imageurl": "https://s3-media4.fl.yelpcdn.com/bphoto/iZ9NiENkxeWwi_ImxZOXqg/90s.jpg", "title": "Hubers", "lon": -88.2685325, "hours": "11:00 am - 11:00 pm", "lat": 40.1185216}, {"category": "Restaurants", "city": "Urbana Champaign, IL", "addr": "2145 S Neil St Champaign, IL 61820", "rating": "4.0", "imageurl": "https://s3-media2.fl.yelpcdn.com/bphoto/pTxnev2rj31mgmffX6J77g/90s.jpg", "title": "China King", "lon": -88.2479701688869, "hours": "10:30 am - 10:00 pm", "lat": 40.0877237618019}, {"category": "Restaurants", "city": "Urbana Champaign, IL", "addr": "410 East University Ave Ste 101 Champaign, IL 61821", "rating": "4.5", "imageurl": "https://s3-media2.fl.yelpcdn.com/bphoto/xyEMS5IbDYQeGfAGtXTIIA/90s.jpg", "title": "Hybrid Fit Food", "lon": -88.2327205, "hours": "10:00 am - 7:00 pm", "lat": 40.1166334}, {"category": "Restaurants", "city": "Urbana Champaign, IL", "addr": "701 S Gregory St Unit H Urbana, IL 61801", "rating": "3.0", "imageurl": "https://s3-media1.fl.yelpcdn.com/bphoto/WVpX8emIyJ7qTJt44xfEkA/90s.jpg", "title": "Rosati\u2019s Pizza", "lon": -88.2217353, "hours": "11:00 am - 11:00 pm", "lat": 40.1065482}, {"category": "Restaurants", "city": "Urbana Champaign, IL", "addr": "55 E Main St Champaign, IL 61820", "rating": "3.5", "imageurl": "https://s3-media4.fl.yelpcdn.com/bphoto/M1iSPYVAlCVv15w41lv_xg/90s.jpg", "title": "Memphis On Main", "lon": -88.2407562, "hours": "4:00 pm - 2:00 am", "lat": 40.1177192}, {"category": "Restaurants", "city": "Urbana Champaign, IL", "addr": "2041 S Neil St Champaign, IL 61820", "rating": "3.5", "imageurl": "https://s3-media1.fl.yelpcdn.com/bphoto/CS14HNLL5r61rRW6Kp4GuA/90s.jpg", "title": "Moe\u2019s Southwest Grill", "lon": -88.246343316035, "hours": "11:00 am - 9:00 pm", "lat": 40.0902821732636}, {"category": "Restaurants", "city": "Urbana Champaign, IL", "addr": "2302 S Neil St Champaign, IL 61820", "rating": "3.5", "imageurl": "https://s3-media3.fl.yelpcdn.com/bphoto/62OEZRMoRo5G32kxBNlmAg/90s.jpg", "title": "Culver\u2019s", "lon": -88.2461953, "hours": "10:00 am - 10:00 pm", "lat": 40.0854477}, {"category": "Restaurants", "city": "Urbana Champaign, IL", "addr": "512 S Neil St Champaign, IL 61820", "rating": "2.5", "imageurl": "https://s3-media3.fl.yelpcdn.com/bphoto/58xSSewqqP4CqGzwGMAN1Q/90s.jpg", "title": "Wingstop", "lon": -88.2430895568236, "hours": "11:00 am - 12:00 am", "lat": 40.1107138379183}, {"category": "Restaurants", "city": "Urbana Champaign, IL", "addr": "700 S Gregory St Urbana, IL 61801", "rating": "3.0", "imageurl": "https://s3-media3.fl.yelpcdn.com/bphoto/8FMPwUpWV4PFmCECVyNXpw/90s.jpg", "title": "Bab Plus Korean Restaurant", "lon": -88.2212475, "hours": "N/A - N/A", "lat": 40.1065086}, {"category": "Restaurants", "city": "Urbana Champaign, IL", "addr": "30 E Anthony Dr Champaign, IL 61820", "rating": "3.0", "imageurl": "https://s3-media1.fl.yelpcdn.com/bphoto/5pKa_OJJyqYosaSu5zbERw/90s.jpg", "title": "Olive Garden Italian Restaurant", "lon": -88.241153, "hours": "11:00 am - 10:00 pm", "lat": 40.135722}, {"category": "Restaurants", "city": "Urbana Champaign, IL", "addr": "708 S 6th St Champaign, IL 61820", "rating": "3.0", "imageurl": "https://s3-media4.fl.yelpcdn.com/bphoto/Ueyc7_6asXSKul7QgBE2Og/90s.jpg", "title": "Clybourne", "lon": -88.2301132, "hours": "N/A - N/A", "lat": 40.1095997}, {"category": "Restaurants", "city": "Urbana Champaign, IL", "addr": "1309 E Washington St Urbana, IL 61802", "rating": "4.0", "imageurl": "https://s3-media1.fl.yelpcdn.com/bphoto/ZepMm8IdrO61lzpqvHSJKA/90s.jpg", "title": "Boomerang\u2019s Bar & Grill", "lon": -88.1925224, "hours": "N/A - N/A", "lat": 40.1050015}, {"category": "Restaurants", "city": "Urbana Champaign, IL", "addr": "103 W Marketview Dr Champaign, IL 61820", "rating": "3.0", "imageurl": "https://s3-media2.fl.yelpcdn.com/bphoto/reD9pmOp0LWyXuVanajQdw/90s.jpg", "title": "TGI Fridays", "lon": -88.2453002929688, "hours": "11:00 am - 10:00 pm", "lat": 40.1375274658203}, {"category": "Restaurants", "city": "Urbana Champaign, IL", "addr": "803 W Anthony Dr Champaign, IL 61822", "rating": "4.0", "imageurl": "https://s3-media2.fl.yelpcdn.com/bphoto/6fzhGYKCFVzW8sG5DYMRZw/90s.jpg", "title": "Einstein Bros Bagels", "lon": -88.2573496355614, "hours": "5:30 am - 4:00 pm", "lat": 40.1365794370765}, {"category": "Restaurants", "city": "Urbana Champaign, IL", "addr": "1214 W University Ave Urbana, IL 61801", "rating": "2.5", "imageurl": "https://s3-media3.fl.yelpcdn.com/bphoto/DfTU2lTVaHxkLNexT6UwaA/90s.jpg", "title": "Perkins Restaurant & Bakery", "lon": -88.2253879, "hours": "Open 24 hours", "lat": 40.1166491}, {"category": "Restaurants", "city": "Urbana Champaign, IL", "addr": "2101 N Kenyon Rd Urbana, IL 61802", "rating": "3.5", "imageurl": "https://s3-media4.fl.yelpcdn.com/bphoto/xaw9EEwrxeuI8ps9nZuLPw/90s.jpg", "title": "Cracker Barrel Old Country Store", "lon": -88.1995086, "hours": "6:00 am - 9:00 pm", "lat": 40.1334488}, {"category": "Restaurants", "city": "Urbana Champaign, IL", "addr": "401 South Mattis Ave Champaign, IL 61821", "rating": "4.0", "imageurl": "https://s3-media3.fl.yelpcdn.com/bphoto/MKp2fnDuVd3QG_lBW_G4wA/90s.jpg", "title": "Biggby Coffee", "lon": -88.2772195187745, "hours": "N/A - N/A", "lat": 40.1123750708667}, {"category": "Restaurants", "city": "Urbana Champaign, IL", "addr": "2506 Village Green Pl Champaign, IL 61822", "rating": "4.0", "imageurl": "https://s3-media1.fl.yelpcdn.com/bphoto/Mz_VC584wH87Lcre9UjYdw/90s.jpg", "title": "El Patio", "lon": -88.2963454, "hours": "11:00 am - 9:00 pm", "lat": 40.0818267}, {"category": "Restaurants", "city": "Urbana Champaign, IL", "addr": "512 E Green St Ste A Champaign, IL 61820", "rating": "3.5", "imageurl": "https://s3-media3.fl.yelpcdn.com/bphoto/gFT91342n8-IyERxqNp0RQ/90s.jpg", "title": "Which Wich", "lon": -88.2314522, "hours": "10:00 am - 12:00 am", "lat": 40.1105073}, {"category": "Restaurants", "city": "Urbana Champaign, IL", "addr": "730 W Town Center Blvd Champaign, IL 61822", "rating": "3.0", "imageurl": "https://s3-media4.fl.yelpcdn.com/bphoto/OGnl3OEKbuxCK6O_yMW8JA/90s.jpg", "title": "O\u2019Charley\u2019s Restaurant & Bar", "lon": -88.256006, "hours": "11:00 am - 10:00 pm", "lat": 40.143257}, {"category": "Restaurants", "city": "Urbana Champaign, IL", "addr": "1601 N Cunningham Ave Urbana, IL 61802", "rating": "4.0", "imageurl": "https://s3-media3.fl.yelpcdn.com/bphoto/ChUnqm0g4YaUZHqJnsOIqA/90s.jpg", "title": "Toro Loco", "lon": -88.199861, "hours": "11:00 am - 9:30 pm", "lat": 40.128228}, {"category": "Restaurants", "city": "Urbana Champaign, IL", "addr": "1401 W Green St University of Illinois Urbana, IL 61801", "rating": "3.5", "imageurl": "https://s3-media3.fl.yelpcdn.com/bphoto/7LQlXOjaIsgbAJ8KI4NClw/90s.jpg", "title": "QDOBA Mexican Eats", "lon": -88.2272046804428, "hours": "8:00 am - 8:00 pm", "lat": 40.1094444772945}, {"category": "Restaurants", "city": "Urbana Champaign, IL", "addr": "Located in Market Place Shopping Center", "rating": "3.0", "imageurl": "https://s3-media2.fl.yelpcdn.com/bphoto/GM9Pci83nFdA_gCHmUuzGg/90s.jpg", "title": "Giordano\u2019s - Champaign", "lon": -88.2446145825068, "hours": "11:00 am - 9:00 pm", "lat": 40.1422324797833}, {"category": "Restaurants", "city": "Urbana Champaign, IL", "addr": "410 N Race St Urbana, IL 61801", "rating": "3.5", "imageurl": "https://s3-media4.fl.yelpcdn.com/bphoto/pTaUneH8eKiLv091b4dZTA/90s.jpg", "title": "Windy City Express", "lon": -88.2086755, "hours": "N/A - N/A", "lat": 40.1161882}, {"category": "Restaurants", "city": "Urbana Champaign, IL", "addr": "49 E Green St Champaign, IL 61820", "rating": "3.5", "imageurl": "https://s3-media1.fl.yelpcdn.com/bphoto/JMDK6RZ_6WbdID0KBH4p_Q/90s.jpg", "title": "Mirsung", "lon": -88.2404819, "hours": "11:00 am - 9:00 pm", "lat": 40.1097873}, {"category": "Restaurants", "city": "Urbana Champaign, IL", "addr": "2101 N Prospect Ave Champaign, IL 61822", "rating": "3.0", "imageurl": "https://s3-media2.fl.yelpcdn.com/bphoto/h8CKG4w4Kx8No_RzBX5lRA/90s.jpg", "title": "LongHorn Steakhouse", "lon": -88.2585101, "hours": "11:00 am - 10:00 pm", "lat": 40.1413941}, {"category": "Restaurants", "city": "Urbana Champaign, IL", "addr": "707 S 6th St Ste 107 Champaign, IL 61820", "rating": "4.0", "imageurl": "https://s3-media1.fl.yelpcdn.com/bphoto/NxPiWEgOYIiy3UldKQhI1A/90s.jpg", "title": "Kung Fu Tea", "lon": -88.2307366, "hours": "11:00 am - 12:00 am", "lat": 40.1097013}, {"category": "Restaurants", "city": "Urbana Champaign, IL", "addr": "120 S Race St Urbana, IL 61801", "rating": "3.5", "imageurl": "https://s3-media2.fl.yelpcdn.com/bphoto/acI66FrDQWI4S0Hhjk9XqA/90s.jpg", "title": "Iron Post", "lon": -88.2088422693115, "hours": "11:00 am - 1:00 am", "lat": 40.1117245258692}, {"category": "Restaurants", "city": "Urbana Champaign, IL", "addr": "901 N Dunlap Ave Savoy, IL 61874", "rating": "4.0", "imageurl": "https://s3-media4.fl.yelpcdn.com/bphoto/LNMNKlVACvOFgIKB6pyKxw/90s.jpg", "title": "Old Orchard Lanes & Links", "lon": -88.2507519, "hours": "10:00 am - 11:00 pm", "lat": 40.0652239}, {"category": "Restaurants", "city": "Urbana Champaign, IL", "addr": "903 W Anthony Dr Ste A Champaign, IL 61820", "rating": "3.0", "imageurl": "https://s3-media2.fl.yelpcdn.com/bphoto/B1TypuyaXEAKDydRABVYmw/90s.jpg", "title": "Chipotle Mexican Grill", "lon": -88.2599453, "hours": "10:45 am - 10:00 pm", "lat": 40.1361978}, {"category": "Restaurants", "city": "Urbana Champaign, IL", "addr": "523 W Town Center Blvd Champaign, IL 61822", "rating": "3.5", "imageurl": "https://s3-media4.fl.yelpcdn.com/bphoto/N5fHOZ4J_XxrfKwQn5rSvw/90s.jpg", "title": "Super Taco", "lon": -88.2520852472147, "hours": "11:00 am - 11:00 pm", "lat": 40.1414736910349}, {"category": "Restaurants", "city": "Urbana Champaign, IL", "addr": "907 W Marketview Dr Ste 8 Champaign, IL 61822", "rating": "3.5", "imageurl": "https://s3-media2.fl.yelpcdn.com/bphoto/PeUZIn_iLNrq3auSusTMwQ/90s.jpg", "title": "Best Wok", "lon": -88.260784, "hours": "10:30 am - 9:00 pm", "lat": 40.137698}, {"category": "Restaurants", "city": "Urbana Champaign, IL", "addr": "713 W Marketview Dr Champaign, IL 61822", "rating": "2.5", "imageurl": "https://s3-media3.fl.yelpcdn.com/bphoto/ZjREhBBHy0TBNLjPukoKwg/90s.jpg", "title": "ChinaTown Buffet", "lon": -88.2560426, "hours": "11:00 am - 9:00 pm", "lat": 40.13727}, {"category": "Restaurants", "city": "Urbana Champaign, IL", "addr": "302 S Neil St Tumble Inn Champaign, IL 61820", "rating": "4.5", "imageurl": "https://s3-media3.fl.yelpcdn.com/bphoto/DuQYMnNQWOQE-ITxwHGwqQ/90s.jpg", "title": "Chester\u2019s BBQ", "lon": -88.243041, "hours": "N/A - N/A", "lat": 40.113786}, {"category": "Restaurants", "city": "Urbana Champaign, IL", "addr": "616 E Green St Champaign, IL 61820", "rating": "2.5", "imageurl": "https://s3-media2.fl.yelpcdn.com/bphoto/NZ7nwKfsiK3Y8v75yQEJWw/90s.jpg", "title": "Panera Bread", "lon": -88.2294295728207, "hours": "7:00 am - 9:00 pm", "lat": 40.110470166693}, {"category": "Restaurants", "city": "Urbana Champaign, IL", "addr": "1765 W Kirby Ave Champaign, IL 61821", "rating": "2.5", "imageurl": "https://s3-media4.fl.yelpcdn.com/bphoto/9c4eSc7g_jdaZ5MmqFRUzg/90s.jpg", "title": "Panera Bread", "lon": -88.275366, "hours": "5:30 am - 9:00 pm", "lat": 40.097838}, {"category": "Restaurants", "city": "Urbana Champaign, IL", "addr": "313 N Mattis Ave Champaign, IL 61821", "rating": "3.0", "imageurl": "https://s3-media3.fl.yelpcdn.com/bphoto/k2HhGp2d1KaX_vLzdT34nw/90s.jpg", "title": "Garcia\u2019s Pizza In A Pan", "lon": -88.27748, "hours": "11:00 am - 11:00 pm", "lat": 40.119587}, {"category": "Restaurants", "city": "Urbana Champaign, IL", "addr": "35 E Green St Champaign, IL 61820", "rating": "3.5", "imageurl": "https://s3-media4.fl.yelpcdn.com/bphoto/X58kr1PkTVk0TB8miJ4leA/90s.jpg", "title": "Green Street Cafe", "lon": -88.2410371, "hours": "N/A - N/A", "lat": 40.1099022}, {"category": "Restaurants", "city": "Urbana Champaign, IL", "addr": "2014 High Cross Rd Urbana, IL 61802", "rating": "4.0", "imageurl": "https://s3-media2.fl.yelpcdn.com/bphoto/rgDb1AlwHJsUcBzcf8Wbcw/90s.jpg", "title": "The Apple Dumplin\u2019", "lon": -88.1625332782138, "hours": "7:00 am - 8:00 pm", "lat": 40.1336703544176}, {"category": "Restaurants", "city": "Urbana Champaign, IL", "addr": "2010 N Neil St Champaign, IL 61820", "rating": "2.5", "imageurl": "https://s3-media2.fl.yelpcdn.com/bphoto/cvKckOm-VIXSRRbRxDm-Cw/90s.jpg", "title": "Red Robin Gourmet Burgers", "lon": -88.246249, "hours": "11:00 am - 10:00 pm", "lat": 40.141131}, {"category": "Restaurants", "city": "Urbana Champaign, IL", "addr": "618 E Daniel St Champaign, IL 61820", "rating": "2.0", "imageurl": "https://s3-media4.fl.yelpcdn.com/bphoto/3j_OO94KjwQMriqGhEMHbw/90s.jpg", "title": "Kam\u2019s", "lon": -88.2295377, "hours": "8:00 pm - 2:00 am", "lat": 40.1080694}, {"category": "Restaurants", "city": "Urbana Champaign, IL", "addr": "2561 W Springfield Ave Champaign, IL 61821", "rating": "3.0", "imageurl": "https://s3-media2.fl.yelpcdn.com/bphoto/PbU6kONQ7O6D1x1x2iB3vw/90s.jpg", "title": "El Toro Bravo", "lon": -88.2898121712154, "hours": "N/A - N/A", "lat": 40.1123909769924}, {"category": "Restaurants", "city": "Urbana Champaign, IL", "addr": "2401 Village Green Pl Champaign, IL 61822", "rating": "4.0", "imageurl": "https://s3-media3.fl.yelpcdn.com/bphoto/aI3eJAl4H6vtkIYqA9ZoAw/90s.jpg", "title": "Espresso Royale", "lon": -88.296606, "hours": "N/A - N/A", "lat": 40.083399}, {"category": "Restaurants", "city": "Urbana Champaign, IL", "addr": "503 E John St Champaign, IL 61820", "rating": "5.0", "imageurl": "https://s3-media3.fl.yelpcdn.com/bphoto/AfOCXW7tbFzPiVfRM3INZA/90s.jpg", "title": "Cafe Sababa", "lon": -88.231538, "hours": "11:30 am - 1:30 pm", "lat": 40.108761}, {"category": "Restaurants", "city": "Urbana Champaign, IL", "addr": "1501 E Perkins Rd Urbana, IL 61803", "rating": "4.5", "imageurl": "https://s3-media2.fl.yelpcdn.com/bphoto/D1faJOTDmlPVGQhX6i5W7g/90s.jpg", "title": "Urbana Dog Park", "lon": -88.187988, "hours": "N/A - N/A", "lat": 40.124499}, {"category": "Restaurants", "city": "Urbana Champaign, IL", "addr": "901 B West Anthony Dr Champaign, IL 61821", "rating": "3.0", "imageurl": "https://s3-media2.fl.yelpcdn.com/bphoto/7oS2A4N1F47lbnteW9317Q/90s.jpg", "title": "Five Guys", "lon": -88.2586063, "hours": "11:00 am - 10:00 pm", "lat": 40.1374723}, {"category": "Restaurants", "city": "Urbana Champaign, IL", "addr": "421 Town Center Rd Champaign, IL 61820", "rating": "3.0", "imageurl": "https://s3-media4.fl.yelpcdn.com/bphoto/sZy9LIJo2vUuiem53DErUA/90s.jpg", "title": "McAlister\u2019s Deli", "lon": -88.2503601437264, "hours": "10:30 am - 9:00 pm", "lat": 40.1416684600487}, {"category": "Restaurants", "city": "Urbana Champaign, IL", "addr": "205 N Mattis Champaign, IL 61821", "rating": "3.0", "imageurl": "https://s3-media1.fl.yelpcdn.com/bphoto/g2uKLDgEW56YNo9MIDQJFw/90s.jpg", "title": "Monical\u2019s Pizza", "lon": -88.277573, "hours": "11:00 am - 10:00 pm", "lat": 40.118026}, {"category": "Restaurants", "city": "Urbana Champaign, IL", "addr": "1104 N Cunningham Ave Urbana, IL 61802", "rating": "3.5", "imageurl": "https://s3-media1.fl.yelpcdn.com/bphoto/WYhsxHtszSznxNPlpbDCsw/90s.jpg", "title": "Bangkok Thai & PHO 911", "lon": -88.200670927763, "hours": "N/A - N/A", "lat": 40.1236712032981}, {"category": "Restaurants", "city": "Urbana Champaign, IL", "addr": "214 W Main St Urbana, IL 61801", "rating": "3.5", "imageurl": "https://s3-media1.fl.yelpcdn.com/bphoto/MdPNPbittzCZH7U5Nn_wkQ/90s.jpg", "title": "A Plus VIP Lounge", "lon": -88.209562, "hours": "6:00 pm - 1:00 am", "lat": 40.112708}, {"category": "Restaurants", "city": "Urbana Champaign, IL", "addr": "404 E Green St Champaign, IL 61820", "rating": "2.5", "imageurl": "https://s3-media2.fl.yelpcdn.com/bphoto/GkoJMMeR8abTgpbprvYcjg/90s.jpg", "title": "Bo Bo China", "lon": -88.2330726, "hours": "11:00 am - 9:00 pm", "lat": 40.1104457}, {"category": "Restaurants", "city": "Urbana Champaign, IL", "addr": "15 E University Ave Champaign, IL 61820", "rating": "4.0", "imageurl": "https://s3-media2.fl.yelpcdn.com/bphoto/J0B301NRUHahNH4W1A5bBg/90s.jpg", "title": "Brass Rail", "lon": -88.2428643, "hours": "N/A - N/A", "lat": 40.1161936}, {"category": "Restaurants", "city": "Urbana Champaign, IL", "addr": "57 E Main St Champaign, IL 61820", "rating": "4.0", "imageurl": "https://s3-media4.fl.yelpcdn.com/bphoto/9iYpnPyKxCFht-ZuHVcyXg/90s.jpg", "title": "Derailed 57 Bar", "lon": -88.24061, "hours": "11:00 am - 2:00 am", "lat": 40.117699}, {"category": "Restaurants", "city": "Urbana Champaign, IL", "addr": "906 W Town Center Blvd Champaign, IL 61822", "rating": "3.5", "imageurl": "https://s3-media2.fl.yelpcdn.com/bphoto/I8qTVYjZA5qF9yF0cq_r-A/90s.jpg", "title": "Penn Station", "lon": -88.2591227, "hours": "N/A - N/A", "lat": 40.1432914}, {"category": "Restaurants", "city": "Urbana Champaign, IL", "addr": "140 Lincoln Sq Mall Urbana, IL 61801", "rating": "3.0", "imageurl": "https://s3-media2.fl.yelpcdn.com/bphoto/y6dZj3o9unRSXO7VWZ2JuQ/90s.jpg", "title": "Tang Dynasty", "lon": -88.197063, "hours": "11:00 am - 9:30 pm", "lat": 40.111024}, {"category": "Restaurants", "city": "Urbana Champaign, IL", "addr": "202 E University Urbana, IL 61801", "rating": "3.0", "imageurl": "https://s3-media2.fl.yelpcdn.com/bphoto/yk43tG2315g4fdKf_KxHoA/90s.jpg", "title": "Rainbow Garden", "lon": -88.205811, "hours": "N/A - N/A", "lat": 40.1167919}, {"category": "Restaurants", "city": "Urbana Champaign, IL", "addr": "1605 S Neil Champaign, IL 61820", "rating": "2.5", "imageurl": "https://s3-media3.fl.yelpcdn.com/bphoto/0-PINiNS8A9oMYv5Tdk_CQ/90s.jpg", "title": "McDonald\u2019s", "lon": -88.2452390296453, "hours": "Open 24 hours", "lat": 40.0975206790506}, {"category": "Restaurants", "city": "Urbana Champaign, IL", "addr": "401 S 1st St Champaign, IL 61820", "rating": "2.5", "imageurl": "https://s3-media2.fl.yelpcdn.com/bphoto/t4XY-KJZuSsPKMtkromtcA/90s.jpg", "title": "Szechuan China", "lon": -88.239211, "hours": "11:00 am - 9:00 pm", "lat": 40.112825}, {"category": "Restaurants", "city": "Urbana Champaign, IL", "addr": "2402 N Prospect Ave Champaign, IL 61822", "rating": "3.5", "imageurl": "https://s3-media3.fl.yelpcdn.com/bphoto/D_h94YP3uEXtu7YjL7h7nA/90s.jpg", "title": "Outback Steakhouse", "lon": -88.257184, "hours": "11:00 am - 10:00 pm", "lat": 40.144995}, {"category": "Restaurants", "city": "Urbana Champaign, IL", "addr": "1811 W Kirby Ave Champaign, IL 61821", "rating": "3.0", "imageurl": "https://s3-media3.fl.yelpcdn.com/bphoto/ijTqBUX6e1RaHEqriadVCQ/90s.jpg", "title": "Jimmy John\u2019s", "lon": -88.2769858, "hours": "10:00 am - 11:00 pm", "lat": 40.0974664}, {"category": "Restaurants", "city": "Urbana Champaign, IL", "addr": "112 E Green St Ste A Champaign, IL 61820", "rating": "3.5", "imageurl": "https://s3-media2.fl.yelpcdn.com/bphoto/76vsw94JgXRhmDXPeGeU0Q/90s.jpg", "title": "Red Cape Hot Pot", "lon": -88.2375068, "hours": "11:00 am - 9:00 pm", "lat": 40.110477}, {"category": "Restaurants", "city": "Urbana Champaign, IL", "addr": "803 W Anthony Dr 3-4 Champaign, IL 61822", "rating": "3.5", "imageurl": "https://s3-media4.fl.yelpcdn.com/bphoto/B3pp5cV_dumvtZPNSexUCA/90s.jpg", "title": "Firehouse Subs", "lon": -88.257355, "hours": "10:30 am - 9:00 pm", "lat": 40.136805}, {"category": "Restaurants", "city": "Urbana Champaign, IL", "addr": "1803 W Kirby Ave Champaign, IL 61821", "rating": "4.0", "imageurl": "https://s3-media3.fl.yelpcdn.com/assets/srv0/yelp_styleguide/fe8c0c8725d3/assets/img/default_avatars/business_90_square.png", "title": "Domino\u2019s Pizza", "lon": -88.2768244, "hours": "10:00 am - 12:00 am", "lat": 40.0972527}, {"category": "Restaurants", "city": "Urbana Champaign, IL", "addr": "320 N Neil St Champaign, IL 61821", "rating": "3.0", "imageurl": "https://s3-media2.fl.yelpcdn.com/bphoto/8bPN2rbWcpLLNzSA0sw2bg/90s.jpg", "title": "Soma Ultralounge", "lon": -88.242863, "hours": "8:00 pm - 2:00 am", "lat": 40.118679}, {"category": "Restaurants", "city": "Urbana Champaign, IL", "addr": "2011 S Neil St Champaign, IL 61820", "rating": "2.5", "imageurl": "https://s3-media3.fl.yelpcdn.com/bphoto/-1IXjHQBzqLkhjwG_ig4lA/90s.jpg", "title": "Starbucks", "lon": -88.2461407344072, "hours": "5:00 am - 10:00 pm", "lat": 40.0915939376166}, {"category": "Restaurants", "city": "Urbana Champaign, IL", "addr": "903 W Marketview Dr Champaign, IL 61822", "rating": "3.5", "imageurl": "https://s3-media2.fl.yelpcdn.com/bphoto/4oWPikzMkJ7zV4PguxPKPQ/90s.jpg", "title": "Culver\u2019s", "lon": -88.2596923, "hours": "10:00 am - 10:00 pm", "lat": 40.1378045}, {"category": "Restaurants", "city": "Urbana Champaign, IL", "addr": "106 E Green St Champaign, IL 61820", "rating": "2.5", "imageurl": "https://s3-media3.fl.yelpcdn.com/bphoto/RhBkAyDc56rSM3YvG_i_xQ/90s.jpg", "title": "Papa John\u2019s Pizza", "lon": -88.2380132, "hours": "N/A - N/A", "lat": 40.1103562}, {"category": "Restaurants", "city": "Urbana Champaign, IL", "addr": "607 E Green St Champaign, IL 61820", "rating": "3.5", "imageurl": "https://s3-media1.fl.yelpcdn.com/bphoto/FlMXGJ3FJ8f69iLGU4i5jg/90s.jpg", "title": "Dunkin\u2019 Donuts", "lon": -88.2299909, "hours": "5:30 am - 10:00 pm", "lat": 40.1101065}, {"category": "Restaurants", "city": "Urbana Champaign, IL", "addr": "1209 Savoy Plaza Ln Savoy, IL 61874", "rating": "3.5", "imageurl": "https://s3-media1.fl.yelpcdn.com/bphoto/dPNbviln0Awe0TeKjkRjPQ/90s.jpg", "title": "Star\u706bBBQ", "lon": -88.2517614045955, "hours": "N/A - N/A", "lat": 40.0696446589924}, {"category": "Restaurants", "city": "Urbana Champaign, IL", "addr": "346 N Neil St Champaign, IL 61820", "rating": "3.0", "imageurl": "https://s3-media1.fl.yelpcdn.com/bphoto/boEJm8AHJU517A1fI-c8vg/90s.jpg", "title": "Orpheum Children\u2019s Science Museum", "lon": -88.2425055, "hours": "10:00 am - 4:00 pm", "lat": 40.1194691}, {"category": "Restaurants", "city": "Urbana Champaign, IL", "addr": "1102 W University Ave Urbana, IL 61801", "rating": "3.0", "imageurl": "https://s3-media2.fl.yelpcdn.com/bphoto/OHj-mkjkcFayH5DIZC23fA/90s.jpg", "title": "Hot Wok Express", "lon": -88.2226294, "hours": "11:00 am - 9:00 pm", "lat": 40.1166669}, {"category": "Restaurants", "city": "Urbana Champaign, IL", "addr": "515 S Neil St Champaign, IL 61820", "rating": "3.0", "imageurl": "https://s3-media4.fl.yelpcdn.com/bphoto/HccKc7B0RvBK1PGCZHKmyw/90s.jpg", "title": "Dunkin\u2019 Donuts", "lon": -88.2439538, "hours": "N/A - N/A", "lat": 40.110518}, {"category": "Restaurants", "city": "Urbana Champaign, IL", "addr": "2720 S Philo Rd Urbana, IL 61802", "rating": "3.0", "imageurl": "https://s3-media1.fl.yelpcdn.com/bphoto/XGu6PPsVuZVy3i80qYuwZg/90s.jpg", "title": "Monical\u2019s Pizza", "lon": -88.1905185, "hours": "11:00 am - 10:00 pm", "lat": 40.0833818}, {"category": "Restaurants", "city": "Urbana Champaign, IL", "addr": "Park And Broadway Urbana, IL 61801", "rating": "4.5", "imageurl": "https://s3-media4.fl.yelpcdn.com/bphoto/AZqU1OreIiUI-hqfluWaIQ/90s.jpg", "title": "Crystal Lake Park", "lon": -88.207547, "hours": "N/A - N/A", "lat": 40.1172058}, {"category": "Restaurants", "city": "Urbana Champaign, IL", "addr": "43 E Green St Champaign, IL 61820", "rating": "3.0", "imageurl": "https://s3-media1.fl.yelpcdn.com/bphoto/--NIG4QKryXPJPu05Nii6g/90s.jpg", "title": "Jimmy John\u2019s", "lon": -88.2408101, "hours": "10:00 am - 3:00 am", "lat": 40.1097893}, {"category": "Restaurants", "city": "Urbana Champaign, IL", "addr": "1813 N Neil St Champaign, IL 61820", "rating": "3.0", "imageurl": "https://s3-media2.fl.yelpcdn.com/bphoto/FHhgyd298gFSmRsb912UrA/90s.jpg", "title": "Bob Evans", "lon": -88.2444831, "hours": "6:00 am - 9:00 pm", "lat": 40.1375758}, {"category": "Restaurants", "city": "Urbana Champaign, IL", "addr": "605 S Sixth St Champaign, IL 61820", "rating": "3.0", "imageurl": "https://s3-media3.fl.yelpcdn.com/bphoto/MisImoAXa7WClQn_1OfjjA/90s.jpg", "title": "Poke Lab", "lon": -88.2305678, "hours": "11:00 am - 9:00 pm", "lat": 40.1108245}, {"category": "Restaurants", "city": "Urbana Champaign, IL", "addr": "1905 N Prospect Ave Champaign, IL 61822", "rating": "3.0", "imageurl": "https://s3-media3.fl.yelpcdn.com/bphoto/844F_vdxTYNYGms3oE8iqw/90s.jpg", "title": "Chili\u2019s", "lon": -88.258619, "hours": "11:00 am - 10:30 pm", "lat": 40.139042}, {"category": "Restaurants", "city": "Urbana Champaign, IL", "addr": "1905 Glenn Park Dr Champaign, IL 61821", "rating": "3.0", "imageurl": "https://s3-media3.fl.yelpcdn.com/bphoto/9NCy1GebExz4LQh1hsVREw/90s.jpg", "title": "La Bamba", "lon": -88.2782405, "hours": "11:00 am - 2:00 am", "lat": 40.118884}, {"category": "Restaurants", "city": "Urbana Champaign, IL", "addr": "907 West Marketview Drive Champaign, IL 61822", "rating": "2.5", "imageurl": "https://s3-media1.fl.yelpcdn.com/bphoto/4xRiQChz3bLiRjReU5rdEQ/90s.jpg", "title": "Buffalo Wild Wings", "lon": -88.261075, "hours": "11:00 am - 12:00 am", "lat": 40.137778}, {"category": "Restaurants", "city": "Urbana Champaign, IL", "addr": "607 S 6th St Champaign, IL 61820", "rating": "2.5", "imageurl": "https://s3-media4.fl.yelpcdn.com/bphoto/s0RuF8RWoL2tYd_6nQFZSA/90s.jpg", "title": "Spicy Tang", "lon": -88.230631632833, "hours": "10:30 am - 9:30 pm", "lat": 40.1107483421539}, {"category": "Restaurants", "city": "Urbana Champaign, IL", "addr": "910 W Bloomington Rd Champaign, IL 61821", "rating": "3.0", "imageurl": "https://s3-media1.fl.yelpcdn.com/bphoto/nB5eecN0Fm4yOcFWP04jnQ/90s.jpg", "title": "Popeyes Louisiana Kitchen", "lon": -88.260065, "hours": "10:30 am - 10:00 pm", "lat": 40.133549}, {"category": "Restaurants", "city": "Urbana Champaign, IL", "addr": "1505 N Broadway Ave Urbana, IL 61801", "rating": "4.5", "imageurl": "https://s3-media1.fl.yelpcdn.com/bphoto/WAWbHnKZqiYYTuyCN_K4lw/90s.jpg", "title": "Anita Purves Nature Center", "lon": -88.207736, "hours": "8:00 am - 5:00 pm", "lat": 40.126648}, {"category": "Restaurants", "city": "Urbana Champaign, IL", "addr": "1801 W Springfield Ave Champaign, IL 61821", "rating": "3.5", "imageurl": "https://s3-media4.fl.yelpcdn.com/bphoto/2xa0mgK3EBA19wtoJv-vHw/90s.jpg", "title": "Jimmy John\u2019s", "lon": -88.277009, "hours": "10:00 am - 11:00 pm", "lat": 40.114051}, {"category": "Restaurants", "city": "Urbana Champaign, IL", "addr": "102 N Vine St Urbana, IL 61801", "rating": "2.5", "imageurl": "https://s3-media1.fl.yelpcdn.com/bphoto/9JBpD3Hq8-cUguOxTLJgsw/90s.jpg", "title": "Starbucks", "lon": -88.2046272, "hours": "N/A - N/A", "lat": 40.1129509}, {"category": "Restaurants", "city": "Urbana Champaign, IL", "addr": "208 W Main St Urbana, IL 61801", "rating": "4.0", "imageurl": "https://s3-media4.fl.yelpcdn.com/bphoto/Y5iZlP-HID7YpacY63kQIQ/90s.jpg", "title": "Bar M", "lon": -88.2093142, "hours": "4:00 pm - 11:00 pm", "lat": 40.112655}, {"category": "Restaurants", "city": "Urbana Champaign, IL", "addr": "49 E Green St Ste B Champaign, IL 61820", "rating": "2.5", "imageurl": "https://s3-media1.fl.yelpcdn.com/bphoto/0slOtpIEfZyfpk2reY_lng/90s.jpg", "title": "Auntie Lee\u2019s Chinese Kitchen", "lon": -88.2402729, "hours": "5:00 pm - 3:00 am", "lat": 40.1101985}, {"category": "Restaurants", "city": "Urbana Champaign, IL", "addr": "911 W University Ave Urbana, IL 61801", "rating": "4.0", "imageurl": "https://s3-media4.fl.yelpcdn.com/bphoto/DNUwH6stHCAlB6d5NPeYZA/90s.jpg", "title": "Dairy Queen", "lon": -88.2202894, "hours": "10:30 am - 10:00 pm", "lat": 40.1161711}, {"category": "Restaurants", "city": "Urbana Champaign, IL", "addr": "1903 Convenience Pl Champaign, IL 61820", "rating": "2.5", "imageurl": "https://s3-media1.fl.yelpcdn.com/bphoto/IE3wzxE3mrJxJFJPi5WuXQ/90s.jpg", "title": "Panera Bread", "lon": -88.243173, "hours": "5:30 am - 9:00 pm", "lat": 40.138507}, {"category": "Restaurants", "city": "Urbana Champaign, IL", "addr": "114 North Vine Street Suite C Urbana, IL 61802", "rating": "3.5", "imageurl": "https://s3-media4.fl.yelpcdn.com/bphoto/LHwVt1B7mKouqw0hOXmTcQ/90s.jpg", "title": "Papa Murphy\u2019s", "lon": -88.2030631, "hours": "N/A - N/A", "lat": 40.1134464}, {"category": "Restaurants", "city": "Urbana Champaign, IL", "addr": "102 E University Ave Ste B Urbana, IL 61801", "rating": "2.5", "imageurl": "https://s3-media3.fl.yelpcdn.com/bphoto/fGxQnqaoEXp3q4DCYB5WQA/90s.jpg", "title": "Pancheros Mexican Grill", "lon": -88.2071079, "hours": "10:30 am - 11:00 pm", "lat": 40.1168049}, {"category": "Restaurants", "city": "Urbana Champaign, IL", "addr": "2029 South Neil St Champaign, IL 61820", "rating": "3.0", "imageurl": "https://s3-media1.fl.yelpcdn.com/bphoto/CtzicTnYg6aGlihPZWOBeg/90s.jpg", "title": "Farmhouse Restaurant At Harvest Market", "lon": -88.2477702837333, "hours": "6:00 am - 8:00 pm", "lat": 40.0906455271616}, {"category": "Restaurants", "city": "Urbana Champaign, IL", "addr": "420 W Towncenter Blvd Champaign, IL 61822", "rating": "3.0", "imageurl": "https://s3-media4.fl.yelpcdn.com/bphoto/EFR3qLL1tfS76LWWL6cnEQ/90s.jpg", "title": "Freddy\u2019s Frozen Custard & Steakburgers", "lon": -88.2499599, "hours": "10:30 am - 10:00 pm", "lat": 40.1418304}, {"category": "Restaurants", "city": "Urbana Champaign, IL", "addr": "2009 S Neil St Champaign, IL 61820", "rating": "2.5", "imageurl": "https://s3-media4.fl.yelpcdn.com/bphoto/bNKmAMPoFDnVTPCU8k6GEg/90s.jpg", "title": "Pancheros Mexican Grill", "lon": -88.2458798959851, "hours": "10:30 am - 11:00 pm", "lat": 40.0918386723927}, {"category": "Restaurants", "city": "Urbana Champaign, IL", "addr": "700 S Gregory St Ste F Urbana, IL 61801", "rating": "2.5", "imageurl": "https://s3-media1.fl.yelpcdn.com/bphoto/uCrUHcG831jQNYlTy9E7BA/90s.jpg", "title": "BBQ Premium Chicken", "lon": -88.2212475, "hours": "N/A - N/A", "lat": 40.1065086}, {"category": "Restaurants", "city": "Urbana Champaign, IL", "addr": "1609 W Springfield Ave Champaign, IL 61821", "rating": "3.5", "imageurl": "https://s3-media1.fl.yelpcdn.com/bphoto/qySmtVwhzWyAr23U9HMxkQ/90s.jpg", "title": "Pia\u2019s Sports Bar & Grill", "lon": -88.2737372, "hours": "N/A - N/A", "lat": 40.1124769}, {"category": "Restaurants", "city": "Urbana Champaign, IL", "addr": "601 N Mattis Ave Champaign, IL 61821", "rating": "3.0", "imageurl": "https://s3-media4.fl.yelpcdn.com/bphoto/gPbHaKtyKAP6NANzXo3pGg/90s.jpg", "title": "Sonic Drive-In", "lon": -88.2775497436523, "hours": "6:00 am - 10:00 pm", "lat": 40.121363059234}, {"category": "Restaurants", "city": "Urbana Champaign, IL", "addr": "1003 University Urbana, IL 61801", "rating": "2.5", "imageurl": "https://s3-media2.fl.yelpcdn.com/bphoto/0wdgfNdkg_tCboe4rOFRCA/90s.jpg", "title": "Taco Bell", "lon": -88.22085, "hours": "7:00 am - 2:00 am", "lat": 40.11634}, {"category": "Restaurants", "city": "Urbana Champaign, IL", "addr": "49 E Marketview Dr Champaign, IL 61820", "rating": "5.0", "imageurl": "https://s3-media4.fl.yelpcdn.com/bphoto/2DMfvb5mTjPYJW0RQI_DLA/90s.jpg", "title": "Edible Arrangements", "lon": -88.2400815226352, "hours": "8:00 am - 7:00 pm", "lat": 40.1373077478}, {"category": "Restaurants", "city": "Urbana Champaign, IL", "addr": "1804 Sangamon Dr Champaign, IL 61821", "rating": "3.5", "imageurl": "https://s3-media2.fl.yelpcdn.com/bphoto/Mr6tMPfbw6OpLDd4RlBBPQ/90s.jpg", "title": "Ming Garden", "lon": -88.27729284098, "hours": "N/A - N/A", "lat": 40.102573411255}, {"category": "Restaurants", "city": "Urbana Champaign, IL", "addr": "2501 Village Green Pl Champaign, IL 61822", "rating": "3.5", "imageurl": "https://s3-media4.fl.yelpcdn.com/bphoto/MuGo3F6ssRiLqXXBkuTtYg/90s.jpg", "title": "Amaravati Indian Royal Cuisine", "lon": -88.2961581481482, "hours": "11:30 am - 10:00 pm", "lat": 40.0817608170193}, {"category": "Restaurants", "city": "Urbana Champaign, IL", "addr": "2010 N Prospect Ave Champaign, IL 61822", "rating": "2.0", "imageurl": "https://s3-media3.fl.yelpcdn.com/bphoto/Soc6yR3qA3a86vpzK3FICA/90s.jpg", "title": "Steak \u2018n Shake", "lon": -88.2573353, "hours": "Open 24 hours", "lat": 40.1404083}, {"category": "Restaurants", "city": "Urbana Champaign, IL", "addr": "1201 N Dunlap Ave Savoy, IL 61874", "rating": "2.5", "imageurl": "https://s3-media2.fl.yelpcdn.com/bphoto/ONaHYsIh_U1WXCxjAbPGrQ/90s.jpg", "title": "Applebee\u2019s Grill + Bar", "lon": -88.249764, "hours": "11:00 am - 12:00 am", "lat": 40.069624}, {"category": "Restaurants", "city": "Urbana Champaign, IL", "addr": "114 N Vine St Urbana, IL 61802", "rating": "3.0", "imageurl": "https://s3-media2.fl.yelpcdn.com/bphoto/TifJGGqbkTf3sp6Bwg8g2Q/90s.jpg", "title": "China Garden", "lon": -88.2030631, "hours": "11:00 am - 10:30 pm", "lat": 40.1134464}, {"category": "Restaurants", "city": "Urbana Champaign, IL", "addr": "902 Meijer Dr Champaign, IL 61822", "rating": "3.0", "imageurl": "https://s3-media4.fl.yelpcdn.com/bphoto/mBwuv0Z5w1dg3Jd9xermmA/90s.jpg", "title": "HuHot Mongolian Grill", "lon": -88.2581333, "hours": "11:00 am - 9:00 pm", "lat": 40.1465169}, {"category": "Restaurants", "city": "Urbana Champaign, IL", "addr": "1907 W Springfield Ave Ste A Champaign, IL 61821", "rating": "3.5", "imageurl": "https://s3-media1.fl.yelpcdn.com/bphoto/OXZiNB8-yApEyeJxSLQPIA/90s.jpg", "title": "Jet\u2019s Pizza", "lon": -88.278054, "hours": "10:00 am - 10:00 pm", "lat": 40.112342}, {"category": "Restaurants", "city": "Urbana Champaign, IL", "addr": "2029 N Prospect Ave Champaign, IL 61821", "rating": "3.0", "imageurl": "https://s3-media3.fl.yelpcdn.com/bphoto/Fp25RBI_gln28qK7XC5Ikw/90s.jpg", "title": "Fazoli\u2019s", "lon": -88.258482, "hours": "11:00 am - 10:00 pm", "lat": 40.139841}, {"category": "Restaurants", "city": "Urbana Champaign, IL", "addr": "500 S Goodwin Ave Krannert Center Urbana, IL 61801", "rating": "3.5", "imageurl": "https://s3-media3.fl.yelpcdn.com/bphoto/Oci5jby6gql7xNxWQybHBA/90s.jpg", "title": "Intermezzo Caf\u00e9", "lon": -88.222501, "hours": "7:30 am - 3:30 pm", "lat": 40.108}, {"category": "Restaurants", "city": "Urbana Champaign, IL", "addr": "1401 W Green St Urbana, IL 61801", "rating": "3.5", "imageurl": "https://s3-media4.fl.yelpcdn.com/bphoto/LZkyb31sBuB9VUGLG2WPCA/90s.jpg", "title": "Starbucks", "lon": -88.2272529602051, "hours": "N/A - N/A", "lat": 40.1092429275094}, {"category": "Restaurants", "city": "Urbana Champaign, IL", "addr": "1404 W Green St Urbana, IL 61801", "rating": "3.0", "imageurl": "https://s3-media3.fl.yelpcdn.com/bphoto/DB4ieVS1UPg-t9oai5C46g/90s.jpg", "title": "Illini Union Ballroom Dining", "lon": -88.2272864, "hours": "N/A - N/A", "lat": 40.110446}, {"category": "Restaurants", "city": "Urbana Champaign, IL", "addr": "1401 W Green St Urbana, IL 61801", "rating": "3.0", "imageurl": "https://s3-media2.fl.yelpcdn.com/bphoto/vQX8FjjI5lFaD7rjmK4cDQ/90s.jpg", "title": "Espresso Royale Caffe", "lon": -88.2271693, "hours": "N/A - N/A", "lat": 40.1094131}, {"category": "Restaurants", "city": "Urbana Champaign, IL", "addr": "2600 S Stone Creek Blvd Urbana, IL 61802", "rating": "3.0", "imageurl": "https://s3-media3.fl.yelpcdn.com/bphoto/oauJS1UGOJLA3TmFI-sdSg/90s.jpg", "title": "Attie\u2019s Bar & Grill", "lon": -88.1697953553646, "hours": "N/A - N/A", "lat": 40.0879260365153}, {"category": "Restaurants", "city": "Urbana Champaign, IL", "addr": "1400 Windsor Rd Champaign, IL 61821", "rating": "5.0", "imageurl": "https://s3-media4.fl.yelpcdn.com/bphoto/4NIPca4s_cvwqnJKl9EGFg/90s.jpg", "title": "Morrissey Park", "lon": -88.26873, "hours": "N/A - N/A", "lat": 40.0839019}, {"category": "Restaurants", "city": "Urbana Champaign, IL", "addr": "102 E University Ste A Urbana, IL 61801", "rating": "2.5", "imageurl": "https://s3-media4.fl.yelpcdn.com/bphoto/qf8fb8vxG6jsIn1ZvSOD1A/90s.jpg", "title": "Jimmy John\u2019s", "lon": -88.2071079, "hours": "10:00 am - 11:00 pm", "lat": 40.1168049}, {"category": "Restaurants", "city": "Urbana Champaign, IL", "addr": "1707 S. Neil Street Champaign, IL 61820", "rating": "2.5", "imageurl": "https://s3-media2.fl.yelpcdn.com/bphoto/kFAM1twfNHN7a9GNm-xD3Q/90s.jpg", "title": "Taco Bell", "lon": -88.245141, "hours": "7:00 am - 2:00 am", "lat": 40.096139}, {"category": "Restaurants", "city": "Urbana Champaign, IL", "addr": "411 E Green St Champaign, IL 61820", "rating": "2.5", "imageurl": "https://s3-media1.fl.yelpcdn.com/bphoto/73vTjalZH4DhX9f5vpm_dA/90s.jpg", "title": "Pizza Hut", "lon": -88.2323072, "hours": "N/A - N/A", "lat": 40.1101088}, {"category": "Restaurants", "city": "Urbana Champaign, IL", "addr": "601 E Green St Ste B Champaign, IL 61820", "rating": "3.0", "imageurl": "https://s3-media4.fl.yelpcdn.com/bphoto/ZJxh0ShPKDxSc2-9nvgpQw/90s.jpg", "title": "Jimmy John\u2019s", "lon": -88.2306395687866, "hours": "10:00 am - 3:00 am", "lat": 40.1103674314622}, {"category": "Restaurants", "city": "Urbana Champaign, IL", "addr": "900 W Bradley Ave Champaign, IL 61821", "rating": "4.5", "imageurl": "https://s3-media4.fl.yelpcdn.com/bphoto/EPuMLlM3-sHv3wX6dcbcwg/90s.jpg", "title": "Krispy Krunchy Chicken", "lon": -88.257965, "hours": "N/A - N/A", "lat": 40.127171}, {"category": "Restaurants", "city": "Urbana Champaign, IL", "addr": "2104 W Springfield Ave Ste B Champaign, IL 61821", "rating": "2.5", "imageurl": "https://s3-media2.fl.yelpcdn.com/bphoto/rup58Z06iIvfrv9iaIbscw/90s.jpg", "title": "Papa John\u2019s Pizza", "lon": -88.2837312, "hours": "10:00 am - 12:00 am", "lat": 40.1131849}, {"category": "Restaurants", "city": "Urbana Champaign, IL", "addr": "1753 West Kirby Avenue Champaign, IL 61821", "rating": "3.0", "imageurl": "https://s3-media1.fl.yelpcdn.com/bphoto/DvnBBAahXHek3pWSdL6CQw/90s.jpg", "title": "Papa Murphy\u2019s", "lon": -88.2749977, "hours": "N/A - N/A", "lat": 40.0975463}, {"category": "Restaurants", "city": "Urbana Champaign, IL", "addr": "702 W Town Center Blvd Champaign, IL 61822", "rating": "2.0", "imageurl": "https://s3-media4.fl.yelpcdn.com/bphoto/kZ-i-GfUyO-6G4I0jxtPug/90s.jpg", "title": "Denny\u2019s", "lon": -88.25479388237, "hours": "Open 24 hours", "lat": 40.1432615060524}, {"category": "Restaurants", "city": "Urbana Champaign, IL", "addr": "101 Calvin St Savoy, IL 61874", "rating": "3.5", "imageurl": "https://s3-media3.fl.yelpcdn.com/bphoto/eLSx0OnlOfOdphW4hhozpA/90s.jpg", "title": "Sonic Drive-In", "lon": -88.2532119, "hours": "6:00 am - 10:00 pm", "lat": 40.058973}, {"category": "Restaurants", "city": "Urbana Champaign, IL", "addr": "106 N Race St Champaign, IL 61801", "rating": "3.5", "imageurl": "https://s3-media3.fl.yelpcdn.com/bphoto/AEJouX9QJIQk_tk7wIaZvg/90s.jpg", "title": "Rose Bowl Tavern", "lon": -88.2087204, "hours": "N/A - N/A", "lat": 40.1128733}, {"category": "Restaurants", "city": "Urbana Champaign, IL", "addr": "400 W University Ave Champaign, IL 61820", "rating": "4.5", "imageurl": "https://s3-media2.fl.yelpcdn.com/bphoto/aBmoorkZm7XlJ9oi4msSyQ/90s.jpg", "title": "West Side Park", "lon": -88.248521983969, "hours": "N/A - N/A", "lat": 40.11737077568}, {"category": "Restaurants", "city": "Urbana Champaign, IL", "addr": "2028 N Prospect Ave Champaign, IL 61822", "rating": "4.0", "imageurl": "https://s3-media2.fl.yelpcdn.com/bphoto/ksx7Zf_pfVpm3KP7jMrcJA/90s.jpg", "title": "HoneyBaked Ham & Cafe", "lon": -88.2552267716858, "hours": "10:00 am - 6:00 pm", "lat": 40.1411697423035}, {"category": "Restaurants", "city": "Urbana Champaign, IL", "addr": "308 E Green St Champaign, IL 61820", "rating": "4.5", "imageurl": "https://s3-media3.fl.yelpcdn.com/bphoto/T_hnNa6flSIvRfWahVEF2A/90s.jpg", "title": "Cafe Social", "lon": -88.2342809, "hours": "8:00 am - 5:00 pm", "lat": 40.1105359}, {"category": "Restaurants", "city": "Urbana Champaign, IL", "addr": "1910 West Springfield Champaign, IL 61821", "rating": "3.0", "imageurl": "https://s3-media4.fl.yelpcdn.com/bphoto/roKNrE8YzQwEeUGfD82h2w/90s.jpg", "title": "Taco Bell", "lon": -88.278467, "hours": "7:00 am - 2:00 am", "lat": 40.112702}, {"category": "Restaurants", "city": "Urbana Champaign, IL", "addr": "500 E Peabody Dr Champaign, IL 61821", "rating": "2.5", "imageurl": "https://s3-media3.fl.yelpcdn.com/assets/srv0/yelp_styleguide/fe8c0c8725d3/assets/img/default_avatars/business_90_square.png", "title": "Espresso Royale", "lon": -88.2317371, "hours": "N/A - N/A", "lat": 40.101862}, {"category": "Restaurants", "city": "Urbana Champaign, IL", "addr": "1502 N Prospect Ave Champaign, IL 61820", "rating": "4.5", "imageurl": "https://s3-media2.fl.yelpcdn.com/bphoto/9vdsyHQ4Y5oIS1J1nu6gcA/90s.jpg", "title": "Arby\u2019s", "lon": -88.257522, "hours": "10:00 am - 10:00 pm", "lat": 40.1312081}, {"category": "Restaurants", "city": "Urbana Champaign, IL", "addr": "705 N Neil St Champaign, IL 61820", "rating": "3.0", "imageurl": "https://s3-media1.fl.yelpcdn.com/bphoto/-Yn7cpHnWc7nCYMyFSRF-Q/90s.jpg", "title": "Tasty Fish Chicken & Grill", "lon": -88.2435608, "hours": "10:00 am - 12:00 pm", "lat": 40.1221402}, {"category": "Restaurants", "city": "Urbana Champaign, IL", "addr": "2521 N Prospect Ave Champaign, IL 61822", "rating": "3.5", "imageurl": "https://s3-media2.fl.yelpcdn.com/bphoto/Jr1TZCX74Yt1C2bcpyMqdA/90s.jpg", "title": "Panda Express", "lon": -88.2585361670667, "hours": "10:30 am - 9:30 pm", "lat": 40.1460326345983}, {"category": "Restaurants", "city": "Urbana Champaign, IL", "addr": "Located in Beckman Institute For Advanced Science and Tchnlgy", "rating": "3.0", "imageurl": "https://s3-media1.fl.yelpcdn.com/bphoto/Ol1VOVOE0JXi1PzyedCv3A/90s.jpg", "title": "Beckman Cafe", "lon": -88.2274307, "hours": "8:00 am - 3:00 pm", "lat": 40.1158179}, {"category": "Restaurants", "city": "Urbana Champaign, IL", "addr": "1703 Philo Rd Urbana, IL 61802", "rating": "4.0", "imageurl": "https://s3-media2.fl.yelpcdn.com/bphoto/1K1I6posNXRjVStDVrL4Eg/90s.jpg", "title": "Sunny China Buffet", "lon": -88.1912166, "hours": "N/A - N/A", "lat": 40.0976637}, {"category": "Restaurants", "city": "Urbana Champaign, IL", "addr": "2000 N Neil St Market Place Mall Champaign, IL 61820", "rating": "2.5", "imageurl": "https://s3-media1.fl.yelpcdn.com/bphoto/o97IclvGRj1-POeRhVQ3mA/90s.jpg", "title": "Sarku Japan", "lon": -88.2441927152039, "hours": "N/A - N/A", "lat": 40.1420381203002}, {"category": "Restaurants", "city": "Urbana Champaign, IL", "addr": "2000 N Neil St Champaign, IL 61820", "rating": "3.5", "imageurl": "https://s3-media3.fl.yelpcdn.com/bphoto/SNWLm8gabeCaneIoHLtVtQ/90s.jpg", "title": "Panda Express", "lon": -88.244042, "hours": "10:30 am - 9:00 pm", "lat": 40.142039}, {"category": "Restaurants", "city": "Urbana Champaign, IL", "addr": "627 S Wright St Champaign, IL 61820", "rating": "3.0", "imageurl": "https://s3-media1.fl.yelpcdn.com/bphoto/nxT3dY7K_nbZI1Uj2vfeXw/90s.jpg", "title": "Panda Express", "lon": -88.2290979, "hours": "10:30 am - 9:00 pm", "lat": 40.1105984}, {"category": "Restaurants", "city": "Urbana Champaign, IL", "addr": "1737 W Kirby Ave Champaign, IL 61821", "rating": "3.5", "imageurl": "https://s3-media2.fl.yelpcdn.com/bphoto/ivJqCgf4ipNVm98OyuJIyg/90s.jpg", "title": "Super Wok", "lon": -88.275177, "hours": "N/A - N/A", "lat": 40.0973}, {"category": "Restaurants", "city": "Urbana Champaign, IL", "addr": "616 E Green St Champaign, IL 61820", "rating": "2.5", "imageurl": "https://s3-media3.fl.yelpcdn.com/bphoto/vEPK2RvksN7dR4zDrwUsMA/90s.jpg", "title": "Subway", "lon": -88.2296109, "hours": "12:00 am - 12:00 pm", "lat": 40.1105931}, {"category": "Restaurants", "city": "Urbana Champaign, IL", "addr": "211 E Green St Champaign, IL 61820", "rating": "2.0", "imageurl": "https://s3-media1.fl.yelpcdn.com/bphoto/CJhSGDZPJKSAzJVLJInX6Q/90s.jpg", "title": "Red Lion", "lon": -88.2356592, "hours": "9:00 pm - 2:00 am", "lat": 40.1100049}, {"category": "Restaurants", "city": "Urbana Champaign, IL", "addr": "Champaign, IL 61820", "rating": "2.5", "imageurl": "https://s3-media3.fl.yelpcdn.com/bphoto/EYnPmdPKYG7DFxZcO5dRqA/90s.jpg", "title": "Kato\u2019s Cajun", "lon": -88.2412504, "hours": "N/A - N/A", "lat": 40.1166102}, {"category": "Restaurants", "city": "Urbana Champaign, IL", "addr": "410 University Ave Urbana, IL 61801", "rating": "2.5", "imageurl": "https://s3-media2.fl.yelpcdn.com/bphoto/nVfppu9aHCVCH4y57OFKZA/90s.jpg", "title": "KFC", "lon": -88.211, "hours": "10:30 am - 11:00 pm", "lat": 40.1163}, {"category": "Restaurants", "city": "Urbana Champaign, IL", "addr": "102 E Green St Champaign, IL 61820", "rating": "2.5", "imageurl": "https://s3-media1.fl.yelpcdn.com/bphoto/SzH8gUXEJ5UX9K3Vs8FbEA/90s.jpg", "title": "Domino\u2019s Pizza", "lon": -88.2384162, "hours": "10:30 am - 3:00 am", "lat": 40.1104381}, {"category": "Restaurants", "city": "Urbana Champaign, IL", "addr": "306 1/2 E Green St Champaign, IL 61820", "rating": "2.5", "imageurl": "https://s3-media3.fl.yelpcdn.com/assets/srv0/yelp_styleguide/fe8c0c8725d3/assets/img/default_avatars/business_90_square.png", "title": "The Fubar Lounge", "lon": -88.2344345, "hours": "N/A - N/A", "lat": 40.1105509}, {"category": "Restaurants", "city": "Urbana Champaign, IL", "addr": "2121 N Prospect Ave Champaign, IL 61822", "rating": "2.0", "imageurl": "https://s3-media2.fl.yelpcdn.com/bphoto/uJIUToQvPOt9AbnjtbfqUA/90s.jpg", "title": "Applebee\u2019s Grill + Bar", "lon": -88.2585105, "hours": "11:00 am - 12:00 am", "lat": 40.1421399}, {"category": "Restaurants", "city": "Urbana Champaign, IL", "addr": "505 E Green St Champaign, IL 61820", "rating": "4.5", "imageurl": "https://s3-media3.fl.yelpcdn.com/bphoto/227fdXDrgmE2bLrW2adPaA/90s.jpg", "title": "Signature Grill", "lon": -88.2314369, "hours": "11:00 am - 10:00 pm", "lat": 40.1099808}, {"category": "Restaurants", "city": "Urbana Champaign, IL", "addr": "902 Meijer Dr Champaign, IL 61822", "rating": "3.0", "imageurl": "https://s3-media1.fl.yelpcdn.com/bphoto/J2G3AYy-SwVvVeO4SS20Kg/90s.jpg", "title": "Taco John\u2019s", "lon": -88.2590772109535, "hours": "7:00 am - 10:00 pm", "lat": 40.1468187571752}, {"category": "Restaurants", "city": "Urbana Champaign, IL", "addr": "202 S Broadway Ave Urbana, IL 61801", "rating": "4.0", "imageurl": "https://s3-media1.fl.yelpcdn.com/bphoto/U2-rP6FQlFUpNZEP2Fr8Pw/90s.jpg", "title": "Urbana Champaign Independent Media Center", "lon": -88.2068934, "hours": "N/A - N/A", "lat": 40.111405}, {"category": "Restaurants", "city": "Urbana Champaign, IL", "addr": "1211 S Mattis Champaign, IL 61821", "rating": "3.0", "imageurl": "https://s3-media4.fl.yelpcdn.com/bphoto/3apZ88LcMMLKQi5ln3ufGg/90s.jpg", "title": "Little Caesar\u2019s Pizza", "lon": -88.276899, "hours": "N/A - N/A", "lat": 40.102573}, {"category": "Restaurants", "city": "Urbana Champaign, IL", "addr": "1317 Savoy Plaza Ln Savoy, IL 61874", "rating": "3.0", "imageurl": "https://s3-media1.fl.yelpcdn.com/bphoto/3MvLvvOxQVRTwNyM70cXDQ/90s.jpg", "title": "Pizza Hut", "lon": -88.2517495610012, "hours": "11:00 am - 11:00 pm", "lat": 40.0707791650079}, {"category": "Restaurants", "city": "Urbana Champaign, IL", "addr": "Daniels St And McKinley Ave Champaign, IL 61820", "rating": "5.0", "imageurl": "https://s3-media3.fl.yelpcdn.com/assets/srv0/yelp_styleguide/fe8c0c8725d3/assets/img/default_avatars/business_90_square.png", "title": "Clark Park", "lon": -88.262517, "hours": "N/A - N/A", "lat": 40.108145}, {"category": "Restaurants", "city": "Urbana Champaign, IL", "addr": "1302 N Prospect Ave Champaign, IL 61820", "rating": "2.5", "imageurl": "https://s3-media1.fl.yelpcdn.com/bphoto/vaj-uY5_cE1Cw_0SNO9Ayw/90s.jpg", "title": "Dunkin\u2019 Donuts", "lon": -88.2573994, "hours": "N/A - N/A", "lat": 40.1286711}, {"category": "Restaurants", "city": "Urbana Champaign, IL", "addr": "Champaign, IL 61820", "rating": "4.0", "imageurl": "https://s3-media4.fl.yelpcdn.com/bphoto/lwsw4L5BxyrBnscQsjaUEQ/90s.jpg", "title": "Bar-B-Q Heaven", "lon": -88.2412504, "hours": "N/A - N/A", "lat": 40.1166102}, {"category": "Restaurants", "city": "Urbana Champaign, IL", "addr": "1906 W Bradley Ave Champaign, IL 61821", "rating": "3.5", "imageurl": "https://s3-media1.fl.yelpcdn.com/bphoto/Dq_9KH20oUuNnILly1w4bA/90s.jpg", "title": "Rafters Draft & Dough", "lon": -88.27974, "hours": "11:00 am - 11:00 pm", "lat": 40.12811}, {"category": "Restaurants", "city": "Urbana Champaign, IL", "addr": "1501 S Neil St Champaign, IL 61820", "rating": "4.0", "imageurl": "https://s3-media3.fl.yelpcdn.com/assets/srv0/yelp_styleguide/fe8c0c8725d3/assets/img/default_avatars/business_90_square.png", "title": "Great American Grill", "lon": -88.2462563, "hours": "N/A - N/A", "lat": 40.0991354}, {"category": "Restaurants", "city": "Urbana Champaign, IL", "addr": "1103 West Oregon St Urbana, IL 61801", "rating": "2.0", "imageurl": "https://s3-media1.fl.yelpcdn.com/bphoto/PIzF11SsyQW-jyFR1DHltA/90s.jpg", "title": "Starbucks", "lon": -88.2219887897372, "hours": "N/A - N/A", "lat": 40.1069337808036}, {"category": "Restaurants", "city": "Urbana Champaign, IL", "addr": "305 W Cedar St Champaign, IL 61820", "rating": "4.0", "imageurl": "https://s3-media3.fl.yelpcdn.com/bphoto/by3nEQGZj7_CT4OVKKd2bQ/90s.jpg", "title": "Asian Noodle and Sushi", "lon": -88.247069, "hours": "11:00 am - 1:00 am", "lat": 40.098735}, {"category": "Restaurants", "city": "Urbana Champaign, IL", "addr": "Champaign, IL 61820", "rating": "5.0", "imageurl": "https://s3-media3.fl.yelpcdn.com/assets/srv0/yelp_styleguide/fe8c0c8725d3/assets/img/default_avatars/business_90_square.png", "title": "Illini Book Exchange", "lon": -88.2412504, "hours": "N/A - N/A", "lat": 40.1166102}, {"category": "Restaurants", "city": "Urbana Champaign, IL", "addr": "203 West Park Ave Champaign, IL 61820", "rating": "4.0", "imageurl": "https://s3-media1.fl.yelpcdn.com/bphoto/zmhsn35D2j3Zg1SiWfgcGQ/90s.jpg", "title": "Roger Ebert\u2019s Overlooked Film Festival", "lon": -88.2455847, "hours": "N/A - N/A", "lat": 40.1170182}, {"category": "Restaurants", "city": "Urbana Champaign, IL", "addr": "1501 Lyndhurst Aly Savoy, IL 61874", "rating": "2.5", "imageurl": "https://s3-media4.fl.yelpcdn.com/bphoto/eeW5uJGZ3wsEZkiGgpQJ_Q/90s.jpg", "title": "Dairy Queen", "lon": -88.2510831, "hours": "N/A - N/A", "lat": 40.0736296}, {"category": "Restaurants", "city": "Urbana Champaign, IL", "addr": "500 S Goodwin Urbana, IL 61801", "rating": "5.0", "imageurl": "https://s3-media3.fl.yelpcdn.com/assets/srv0/yelp_styleguide/fe8c0c8725d3/assets/img/default_avatars/business_90_square.png", "title": "interlude", "lon": -88.222747, "hours": "N/A - N/A", "lat": 40.108013}, {"category": "Restaurants", "city": "Urbana Champaign, IL", "addr": "1134 Sterling Dr Champaign, IL 61821", "rating": "5.0", "imageurl": "https://s3-media2.fl.yelpcdn.com/bphoto/04NA-z5_UG-Fg0u8TeC2iQ/90s.jpg", "title": "Noel Park", "lon": -88.2641149, "hours": "N/A - N/A", "lat": 40.0808329}, {"category": "Restaurants", "city": "Urbana Champaign, IL", "addr": "701 S Gregory St Ste A Urbana, IL 61801", "rating": "2.5", "imageurl": "https://s3-media3.fl.yelpcdn.com/bphoto/94AGRcBENNyjwByjPP2B7w/90s.jpg", "title": "Subway", "lon": -88.2217353, "hours": "N/A - N/A", "lat": 40.1065482}, {"category": "Restaurants", "city": "Urbana Champaign, IL", "addr": "505 N Cunningham Urbana, IL 61802", "rating": "3.0", "imageurl": "https://s3-media3.fl.yelpcdn.com/bphoto/Um8QgO1lzMfGrFu6VPoUvQ/90s.jpg", "title": "Wendy\u2019s", "lon": -88.2051296, "hours": "9:00 am - 2:00 am", "lat": 40.1172246}, {"category": "Restaurants", "city": "Urbana Champaign, IL", "addr": "Serving Champaign and surrounding area", "rating": "5.0", "imageurl": "https://s3-media4.fl.yelpcdn.com/bphoto/EUjiAr_QB0gV1rXt07velg/90s.jpg", "title": "Mos Burritos", "lon": -88.24905395507812, "hours": "10:00 am - 9:00 pm", "lat": 40.102715093492705}, {"category": "Restaurants", "city": "Urbana Champaign, IL", "addr": "1402 W Gregory Dr Urbana, IL 61801", "rating": "2.0", "imageurl": "https://s3-media1.fl.yelpcdn.com/bphoto/DVWP7fVq78zE6ZyR4A8bDg/90s.jpg", "title": "Espresso Royale", "lon": -88.2272315, "hours": "7:00 am - 1:00 am", "lat": 40.1047959}, {"category": "Restaurants", "city": "Urbana Champaign, IL", "addr": "1913 W Springfield Ave Champaign, IL 61821", "rating": "2.5", "imageurl": "https://s3-media3.fl.yelpcdn.com/assets/srv0/yelp_styleguide/fe8c0c8725d3/assets/img/default_avatars/business_90_square.png", "title": "Arby\u2019s", "lon": -88.2794573, "hours": "10:00 am - 11:00 pm", "lat": 40.1124216}, {"category": "Restaurants", "city": "Urbana Champaign, IL", "addr": "2033 N Prospect Ave Champaign, IL 61822", "rating": "1.5", "imageurl": "https://s3-media2.fl.yelpcdn.com/bphoto/ByvHbKphdetpbE1tAhj7oA/90s.jpg", "title": "Wendy\u2019s", "lon": -88.2583868, "hours": "N/A - N/A", "lat": 40.140347}, {"category": "Restaurants", "city": "Urbana Champaign, IL", "addr": "2201 W Springfield Ave Champaign, IL 61821", "rating": "3.0", "imageurl": "https://s3-media2.fl.yelpcdn.com/bphoto/Z-iNdrGJGxznCYO63SUO_g/90s.jpg", "title": "KFC", "lon": -88.2838, "hours": "10:30 am - 10:00 pm", "lat": 40.1127}, {"category": "Restaurants", "city": "Urbana Champaign, IL", "addr": "509 N Cunningham Ave Urbana, IL 61802", "rating": "3.5", "imageurl": "https://s3-media1.fl.yelpcdn.com/bphoto/9g8beEcocnO3J_9xeMMWFA/90s.jpg", "title": "Arby\u2019s", "lon": -88.2046857, "hours": "10:00 am - 11:00 pm", "lat": 40.1177712}, {"category": "Restaurants", "city": "Urbana Champaign, IL", "addr": "2512 N Prospect Ave Champaign, IL 61822", "rating": "4.5", "imageurl": "https://s3-media1.fl.yelpcdn.com/bphoto/wSwTd2fb4R-sDvabeigsEQ/90s.jpg", "title": "CoreLife Eatery", "lon": -88.257994, "hours": "11:00 am - 9:00 pm", "lat": 40.1475397}, {"category": "Restaurants", "city": "Urbana Champaign, IL", "addr": "802 W University Ave Urbana, IL 61801", "rating": "5.0", "imageurl": "https://s3-media3.fl.yelpcdn.com/assets/srv0/yelp_styleguide/fe8c0c8725d3/assets/img/default_avatars/business_90_square.png", "title": "Subway", "lon": -88.2176257, "hours": "N/A - N/A", "lat": 40.1166903}, {"category": "Restaurants", "city": "Urbana Champaign, IL", "addr": "625 E Green St Champaign, IL 61820", "rating": "1.5", "imageurl": "https://s3-media2.fl.yelpcdn.com/bphoto/Ce3nHl5uR3XBCcVSenVfPQ/90s.jpg", "title": "Slice Factory", "lon": -88.2293787, "hours": "11:00 am - 11:00 pm", "lat": 40.1101096}, {"category": "Restaurants", "city": "Urbana Champaign, IL", "addr": "2102 W Springfield Ave Champaign, IL 61821", "rating": "4.0", "imageurl": "https://s3-media2.fl.yelpcdn.com/bphoto/8on1YBDdceR9KcU69UIt4A/90s.jpg", "title": "Wienerschnitzel", "lon": -88.2831241065139, "hours": "9:00 am - 11:00 pm", "lat": 40.1132173067759}, {"category": "Restaurants", "city": "Urbana Champaign, IL", "addr": "1401 S Neil St Champaign, IL 61820", "rating": "1.5", "imageurl": "https://s3-media3.fl.yelpcdn.com/assets/srv0/yelp_styleguide/fe8c0c8725d3/assets/img/default_avatars/business_90_square.png", "title": "Subway", "lon": -88.244739, "hours": "N/A - N/A", "lat": 40.0997492}, {"category": "Restaurants", "city": "Urbana Champaign, IL", "addr": "1321 N Dunlap Ave Savoy, IL 61874", "rating": "2.0", "imageurl": "https://s3-media1.fl.yelpcdn.com/bphoto/iJg6Ka_S634w0BUeuIRvMg/90s.jpg", "title": "KFC", "lon": -88.2487, "hours": "10:30 am - 9:00 pm", "lat": 40.0712}, {"category": "Restaurants", "city": "Urbana Champaign, IL", "addr": "1001 W Bloomington Rd Champaign, IL 61821", "rating": "4.0", "imageurl": "https://s3-media3.fl.yelpcdn.com/assets/srv0/yelp_styleguide/fe8c0c8725d3/assets/img/default_avatars/business_90_square.png", "title": "El Progreso Tienda Y", "lon": -88.2605186, "hours": "N/A - N/A", "lat": 40.1332699}, {"category": "Restaurants", "city": "Urbana Champaign, IL", "addr": "119 W Main St Urbana, IL 61801", "rating": "5.0", "imageurl": "https://s3-media1.fl.yelpcdn.com/bphoto/I5C9QZ8Fz0OqngsXJjkJCw/90s.jpg", "title": "Blackbird", "lon": -88.2078016078982, "hours": "4:00 pm - 2:00 am", "lat": 40.1124098764835}, {"category": "Restaurants", "city": "Urbana Champaign, IL", "addr": "1901 S Philo Rd Urbana, IL 61802", "rating": "4.0", "imageurl": "https://s3-media3.fl.yelpcdn.com/assets/srv0/yelp_styleguide/fe8c0c8725d3/assets/img/default_avatars/business_90_square.png", "title": "Marco\u2019s Pizza", "lon": -88.1913764, "hours": "11:00 am - 11:00 pm", "lat": 40.0944108}, {"category": "Restaurants", "city": "Urbana Champaign, IL", "addr": "1511 N Prospect Ave Champaign, IL 61821", "rating": "2.5", "imageurl": "https://s3-media3.fl.yelpcdn.com/assets/srv0/yelp_styleguide/fe8c0c8725d3/assets/img/default_avatars/business_90_square.png", "title": "Jimmy John\u2019s", "lon": -88.2587494, "hours": "10:30 am - 11:00 pm", "lat": 40.1321258}, {"category": "Restaurants", "city": "Urbana Champaign, IL", "addr": "2200 S Philo Rd Urbana, IL 61802", "rating": "5.0", "imageurl": "https://s3-media2.fl.yelpcdn.com/bphoto/bmc894iO8wkeQ9o2JKIHeQ/90s.jpg", "title": "Yelp Community Event : Sola Gratia Farm", "lon": -88.1899226, "hours": "5:30 pm - 8:00 pm", "lat": 40.0881802}, {"category": "Restaurants", "city": "Urbana Champaign, IL", "addr": "2105 W Springfield Ave Champaign, IL 61821", "rating": "2.5", "imageurl": "https://s3-media3.fl.yelpcdn.com/bphoto/4X8tug9wMhK00_YIkvJneg/90s.jpg", "title": "Burger King", "lon": -88.2814842, "hours": "N/A - N/A", "lat": 40.1125075}, {"category": "Restaurants", "city": "Urbana Champaign, IL", "addr": "508 E Green St Champaign, IL 61820", "rating": "2.0", "imageurl": "https://s3-media3.fl.yelpcdn.com/assets/srv0/yelp_styleguide/fe8c0c8725d3/assets/img/default_avatars/business_90_square.png", "title": "Nanjing Bistro", "lon": -88.2510538, "hours": "10:30 am - 10:30 pm", "lat": 40.1103977}, {"category": "Restaurants", "city": "Urbana Champaign, IL", "addr": "2909 W Kirby Ave Champaign, IL 61821", "rating": "1.5", "imageurl": "https://s3-media1.fl.yelpcdn.com/bphoto/_C1FGtMB1ABM8KF_aTBAGA/90s.jpg", "title": "McDonald\u2019s", "lon": -88.2938878145524, "hours": "5:30 am - 12:00 am", "lat": 40.0979104613062}, {"category": "Restaurants", "city": "Urbana Champaign, IL", "addr": "515 E Gregory Dr Champaign, IL 61820", "rating": "2.5", "imageurl": "https://s3-media3.fl.yelpcdn.com/assets/srv0/yelp_styleguide/fe8c0c8725d3/assets/img/default_avatars/business_90_square.png", "title": "Espresso Royale", "lon": -88.2312809, "hours": "N/A - N/A", "lat": 40.1033497}, {"category": "Restaurants", "city": "Urbana Champaign, IL", "addr": "107 N Broadway Ave Urbana, IL 61801", "rating": "3.5", "imageurl": "https://s3-media3.fl.yelpcdn.com/assets/srv0/yelp_styleguide/fe8c0c8725d3/assets/img/default_avatars/business_90_square.png", "title": "American Legion Post # 71", "lon": -88.2077609, "hours": "N/A - N/A", "lat": 40.1130617}, {"category": "Restaurants", "city": "Urbana Champaign, IL", "addr": "902 W University Ave Urbana, IL 61801", "rating": "2.5", "imageurl": "https://s3-media4.fl.yelpcdn.com/bphoto/cR4f6kMjzfGEBZVi8jK0SA/90s.jpg", "title": "Burrito King", "lon": -88.220285, "hours": "N/A - N/A", "lat": 40.116597}, {"category": "Restaurants", "city": "Urbana Champaign, IL", "addr": "701 Goldenview Dr Champaign, IL 61821", "rating": "5.0", "imageurl": "https://s3-media3.fl.yelpcdn.com/assets/srv0/yelp_styleguide/fe8c0c8725d3/assets/img/default_avatars/business_90_square.png", "title": "Johnston Park", "lon": -88.302081326503, "hours": "N/A - N/A", "lat": 40.1088935041641}, {"category": "Restaurants", "city": "Urbana Champaign, IL", "addr": "1702 W Bradley Ave Champaign, IL 61821", "rating": "3.0", "imageurl": "https://s3-media3.fl.yelpcdn.com/assets/srv0/yelp_styleguide/fe8c0c8725d3/assets/img/default_avatars/business_90_square.png", "title": "Domino\u2019s Pizza", "lon": -88.2754373, "hours": "10:00 am - 1:00 am", "lat": 40.1274143}, {"category": "Restaurants", "city": "Urbana Champaign, IL", "addr": "1812 N Neil Champaign, IL 61820", "rating": "1.5", "imageurl": "https://s3-media4.fl.yelpcdn.com/bphoto/_W_UY_nED9LVKVx-l1FrQg/90s.jpg", "title": "McDonald\u2019s", "lon": -88.2430710516383, "hours": "5:00 am - 1:00 am", "lat": 40.1375695808277}, {"category": "Restaurants", "city": "Urbana Champaign, IL", "addr": "1325 N Dunlap St Savoy, IL 61874", "rating": "2.0", "imageurl": "https://s3-media3.fl.yelpcdn.com/assets/srv0/yelp_styleguide/fe8c0c8725d3/assets/img/default_avatars/business_90_square.png", "title": "Burger King", "lon": -88.2489681243896, "hours": "N/A - N/A", "lat": 40.0706497610587}, {"category": "Restaurants", "city": "Urbana Champaign, IL", "addr": "703 S Neil St Ste A Champaign, IL 61820", "rating": "2.5", "imageurl": "https://s3-media4.fl.yelpcdn.com/bphoto/p5dAAAO9TGp6pNTMhG610A/90s.jpg", "title": "Little Caesars Pizza", "lon": -88.2435071468353, "hours": "10:30 am - 10:00 pm", "lat": 40.1088336110115}, {"category": "Restaurants", "city": "Urbana Champaign, IL", "addr": "2610 N Prospect Ave Champaign, IL 61822", "rating": "5.0", "imageurl": "https://s3-media3.fl.yelpcdn.com/assets/srv0/yelp_styleguide/fe8c0c8725d3/assets/img/default_avatars/business_90_square.png", "title": "Subway", "lon": -88.2547926, "hours": "N/A - N/A", "lat": 40.1469535}, {"category": "Restaurants", "city": "Urbana Champaign, IL", "addr": "409 N Mattis Ave Champaign, IL 61821", "rating": "1.5", "imageurl": "https://s3-media2.fl.yelpcdn.com/bphoto/8PZ-x2krLA6IWG77hnzmsg/90s.jpg", "title": "Pizza Hut", "lon": -88.2772715, "hours": "N/A - N/A", "lat": 40.1202096}, {"category": "Restaurants", "city": "Urbana Champaign, IL", "addr": "2409 Village Green Pl Champaign, IL 61822", "rating": "2.5", "imageurl": "https://s3-media3.fl.yelpcdn.com/assets/srv0/yelp_styleguide/fe8c0c8725d3/assets/img/default_avatars/business_90_square.png", "title": "Subway", "lon": -88.2965982, "hours": "N/A - N/A", "lat": 40.0836476}, {"category": "Restaurants", "city": "Urbana Champaign, IL", "addr": "404 W University Ave Urbana, IL 61801", "rating": "1.5", "imageurl": "https://s3-media2.fl.yelpcdn.com/bphoto/2P-lLoXsCdvryjxDvE0qYA/90s.jpg", "title": "Dunkin\u2019 Donuts", "lon": -88.21142578125, "hours": "N/A - N/A", "lat": 40.116756439209}, {"category": "Restaurants", "city": "Urbana Champaign, IL", "addr": "301 S Mattis Ave Champaign, IL 61821", "rating": "3.5", "imageurl": "https://s3-media3.fl.yelpcdn.com/assets/srv0/yelp_styleguide/fe8c0c8725d3/assets/img/default_avatars/business_90_square.png", "title": "Goldys", "lon": -88.2786519, "hours": "N/A - N/A", "lat": 40.114764}, {"category": "Restaurants", "city": "Urbana Champaign, IL", "addr": "1708 Philo Rd Urbana, IL 61802", "rating": "2.5", "imageurl": "https://s3-media1.fl.yelpcdn.com/bphoto/BiYYFjb_0EyYMJnHAjOCjw/90s.jpg", "title": "Burger King", "lon": -88.190285, "hours": "5:30 am - 11:00 pm", "lat": 40.0974422}, {"category": "Restaurants", "city": "Urbana Champaign, IL", "addr": "2009 Kenyon Rd Urbana, IL 61802", "rating": "2.5", "imageurl": "https://s3-media3.fl.yelpcdn.com/bphoto/rE4yGKedWApmVIKMIv4jSw/90s.jpg", "title": "Steak \u2018n Shake", "lon": -88.198577, "hours": "Open 24 hours", "lat": 40.1331967}, {"category": "Restaurants", "city": "Urbana Champaign, IL", "addr": "1201 N Mattis Ave Champaign, IL 61821", "rating": "2.5", "imageurl": "https://s3-media4.fl.yelpcdn.com/bphoto/3rnRxATnV3qEzYSiOCmk6Q/90s.jpg", "title": "Hardee\u2019s", "lon": -88.2796597, "hours": "N/A - N/A", "lat": 40.1278221}, {"category": "Restaurants", "city": "Urbana Champaign, IL", "addr": "303 W University Ave Urbana, IL 61801", "rating": "4.0", "imageurl": "https://s3-media3.fl.yelpcdn.com/assets/srv0/yelp_styleguide/fe8c0c8725d3/assets/img/default_avatars/business_90_square.png", "title": "Urbana Park District", "lon": -88.210388, "hours": "N/A - N/A", "lat": 40.115893}, {"category": "Restaurants", "city": "Urbana Champaign, IL", "addr": "3602 N Mattis Ave Champaign, IL 61822", "rating": "2.0", "imageurl": "https://s3-media2.fl.yelpcdn.com/bphoto/MFynoAOdYFQXkakmI6dIoA/90s.jpg", "title": "Dairy Queen", "lon": -88.2762061, "hours": "N/A - N/A", "lat": 40.1585488}, {"category": "Restaurants", "city": "Urbana Champaign, IL", "addr": "45 E University Ave Ste 101 Champaign, IL 61820", "rating": "2.0", "imageurl": "https://s3-media3.fl.yelpcdn.com/bphoto/40YGPv57DKbePWd_daxZvg/90s.jpg", "title": "Subway", "lon": -88.241201, "hours": "N/A - N/A", "lat": 40.1157886}, {"category": "Restaurants", "city": "Urbana Champaign, IL", "addr": "106 E University Ave Urbana, IL 61801", "rating": "4.0", "imageurl": "https://s3-media1.fl.yelpcdn.com/bphoto/enaqNk2qGrmEzdFg2Ai8Vw/90s.jpg", "title": "Panda Express", "lon": -88.2065609, "hours": "10:30 am - 9:30 pm", "lat": 40.116785}, {"category": "Restaurants", "city": "Urbana Champaign, IL", "addr": "601 N Cunningham Urbana, IL 61801", "rating": "2.0", "imageurl": "https://s3-media3.fl.yelpcdn.com/bphoto/rvd_BcFTjIKlEU3sJzUtjw/90s.jpg", "title": "McDonald\u2019s", "lon": -88.2044307037722, "hours": "Open 24 hours", "lat": 40.1182515362581}, {"category": "Restaurants", "city": "Urbana Champaign, IL", "addr": "1101 N Mattis Ave Champaign, IL 61821", "rating": "3.0", "imageurl": "https://s3-media1.fl.yelpcdn.com/bphoto/BfrWiB5OTAiwIhqGOvUHUw/90s.jpg", "title": "Subway", "lon": -88.277481, "hours": "N/A - N/A", "lat": 40.126996}, {"category": "Restaurants", "city": "Urbana Champaign, IL", "addr": "2310 S Neil St Champaign, IL 61820", "rating": "2.5", "imageurl": "https://s3-media3.fl.yelpcdn.com/assets/srv0/yelp_styleguide/fe8c0c8725d3/assets/img/default_avatars/business_90_square.png", "title": "Arby\u2019s", "lon": -88.2462913486742, "hours": "10:00 am - 11:00 pm", "lat": 40.0846950551167}, {"category": "Restaurants", "city": "Urbana Champaign, IL", "addr": "1806 W Bradley Ave Champaign, IL 61821", "rating": "3.0", "imageurl": "https://s3-media2.fl.yelpcdn.com/bphoto/OXbohkkr2GAUuGqqYnhAUw/90s.jpg", "title": "Windy City Express", "lon": -88.2782053, "hours": "N/A - N/A", "lat": 40.1278578}]
