[{"category": "Restaurants", "city": "Los Angeles, CA", "addr": "700 S Grand Ave Los Angeles, CA 90017", "rating": "4.0", "imageurl": "https://s3-media3.fl.yelpcdn.com/bphoto/rAImnKvUNcNY8i6qEDWrZA/90s.jpg", "title": "Bottega Louie", "lon": -118.256601457672, "hours": "7:00 am - 10:00 pm", "lat": 34.0469300995766}, {"category": "Restaurants", "city": "Los Angeles, CA", "addr": "800 E 3rd St Los Angeles, CA 90013", "rating": "4.0", "imageurl": "https://s3-media4.fl.yelpcdn.com/bphoto/gWIbvLDR1Y6yfTGTzXp_lw/90s.jpg", "title": "Wurstk\u00fcche", "lon": -118.236058, "hours": "11:00 am - 2:00 am", "lat": 34.045603}, {"category": "Restaurants", "city": "Los Angeles, CA", "addr": "327 E 1st St Los Angeles, CA 90012", "rating": "4.0", "imageurl": "https://s3-media3.fl.yelpcdn.com/bphoto/dctx5POftA4Pk70II3PS1A/90s.jpg", "title": "Daikokuya Little Tokyo", "lon": -118.2401804513, "hours": "11:00 am - 12:00 am", "lat": 34.05008090944}, {"category": "Restaurants", "city": "Los Angeles, CA", "addr": "Located in Far East Plaza", "rating": "4.5", "imageurl": "https://s3-media3.fl.yelpcdn.com/bphoto/6HVQrC1EzLBN7XZ432vlgA/90s.jpg", "title": "Howlin\u2019 Ray\u2019s", "lon": -118.239554800093, "hours": "11:00 am - 7:00 pm", "lat": 34.0614861063899}, {"category": "Restaurants", "city": "Los Angeles, CA", "addr": "2121 E 7th Pl Los Angeles, CA 90021", "rating": "4.5", "imageurl": "https://s3-media4.fl.yelpcdn.com/bphoto/2qZHshAOHh86vSP6sfruMQ/90s.jpg", "title": "Bestia", "lon": -118.229262541684, "hours": "5:00 pm - 11:00 pm", "lat": 34.0337004201362}, {"category": "Restaurants", "city": "Los Angeles, CA", "addr": "3465 W 6th St Los Angeles, CA 90020", "rating": "4.5", "imageurl": "https://s3-media3.fl.yelpcdn.com/bphoto/izhJQsGE5LZAHQb-WmNwSA/90s.jpg", "title": "Kang Ho-dong Baekjeong", "lon": -118.2972824, "hours": "11:30 am - 1:30 am", "lat": 34.0637327}, {"category": "Restaurants", "city": "Los Angeles, CA", "addr": "3179 Los Feliz Blvd Los Angeles, CA 90039", "rating": "4.5", "imageurl": "https://s3-media1.fl.yelpcdn.com/bphoto/fNFdhU_I6Iw7J1jM5nVmAw/90s.jpg", "title": "The Morrison", "lon": -118.2687056, "hours": "12:00 pm - 11:00 pm", "lat": 34.1237136}, {"category": "Restaurants", "city": "Los Angeles, CA", "addr": "704 S Alvarado St Los Angeles, CA 90057", "rating": "4.5", "imageurl": "https://s3-media2.fl.yelpcdn.com/bphoto/QOe-c9653RqTlSlSrNgmmw/90s.jpg", "title": "Langer\u2019s", "lon": -118.276832, "hours": "8:00 am - 4:00 pm", "lat": 34.0561522}, {"category": "Restaurants", "city": "Los Angeles, CA", "addr": "7371 Melrose Ave Los Angeles, CA 90046", "rating": "4.0", "imageurl": "https://s3-media2.fl.yelpcdn.com/bphoto/XE1J0GjYpoTEKbjv0ayhWA/90s.jpg", "title": "Blu Jam Caf\u00e9", "lon": -118.350571407739, "hours": "8:00 am - 3:00 pm", "lat": 34.0837144354804}, {"category": "Restaurants", "city": "Los Angeles, CA", "addr": "5955 Melrose Ave Los Angeles, CA 90038", "rating": "4.5", "imageurl": "https://s3-media1.fl.yelpcdn.com/bphoto/HtSxmGcVJ3gQwSPg_uYdRw/90s.jpg", "title": "Providence", "lon": -118.330168, "hours": "6:00 pm - 10:00 pm", "lat": 34.083628}, {"category": "Restaurants", "city": "Los Angeles, CA", "addr": "700 S Grand Ave Los Angeles, CA 90017", "rating": "4.0", "imageurl": "https://s3-media3.fl.yelpcdn.com/bphoto/rAImnKvUNcNY8i6qEDWrZA/90s.jpg", "title": "Bottega Louie", "lon": -118.256601457672, "hours": "7:00 am - 10:00 pm", "lat": 34.0469300995766}, {"category": "Restaurants", "city": "Los Angeles, CA", "addr": "624 S La Brea Ave Los Angeles, CA 90036", "rating": "4.0", "imageurl": "https://s3-media3.fl.yelpcdn.com/bphoto/TZJzdMsLNAg-ekOjI-6aZA/90s.jpg", "title": "R\u00e9publique", "lon": -118.3436788, "hours": "8:00 am - 3:00 pm\n5:30 pm - 10:00 pm", "lat": 34.0641783}, {"category": "Restaurants", "city": "Los Angeles, CA", "addr": "422 E 2nd St Los Angeles, CA 90012", "rating": "4.5", "imageurl": "https://s3-media4.fl.yelpcdn.com/bphoto/tBsq9To8OQjF3mz1zLMX6A/90s.jpg", "title": "Sushi Gen", "lon": -118.238502456345, "hours": "11:30 am - 2:00 pm\n5:30 pm - 9:30 pm", "lat": 34.0470000646326}, {"category": "Restaurants", "city": "Los Angeles, CA", "addr": "1800 W Sunset Blvd Los Angeles, CA 90026", "rating": "4.0", "imageurl": "https://s3-media4.fl.yelpcdn.com/bphoto/LBvbT3xGqqika-ALV3brlA/90s.jpg", "title": "Masa of Echo Park", "lon": -118.259599, "hours": "11:00 am - 11:00 pm", "lat": 34.077585}, {"category": "Restaurants", "city": "Los Angeles, CA", "addr": "3821 W 6th St Los Angeles, CA 90020", "rating": "4.0", "imageurl": "https://s3-media1.fl.yelpcdn.com/bphoto/UE_ZY3fBqOaun7z-75Drbw/90s.jpg", "title": "Hae Jang Chon Korean BBQ Restaurant", "lon": -118.3061281, "hours": "11:00 am - 2:00 am", "lat": 34.0639032}, {"category": "Restaurants", "city": "Los Angeles, CA", "addr": "317 S Broadway Grand Central Market Los Angeles, CA 90013", "rating": "4.0", "imageurl": "https://s3-media4.fl.yelpcdn.com/bphoto/_wNb9v2kZxaC8miu5Wk0LA/90s.jpg", "title": "Eggslut", "lon": -118.2487951, "hours": "8:00 am - 4:00 pm", "lat": 34.050655}, {"category": "Restaurants", "city": "Los Angeles, CA", "addr": "329 E 1st St Los Angeles, CA 90012", "rating": "4.5", "imageurl": "https://s3-media1.fl.yelpcdn.com/bphoto/Q4wgtbzljwmssLWJAuWI_g/90s.jpg", "title": "Marugame Monzo", "lon": -118.24000469601, "hours": "11:30 am - 2:30 pm\n5:00 pm - 10:00 pm", "lat": 34.0499467929522}, {"category": "Restaurants", "city": "Los Angeles, CA", "addr": "3500 W 6th St Ste 101 Los Angeles, CA 90020", "rating": "4.0", "imageurl": "https://s3-media4.fl.yelpcdn.com/bphoto/N5XLRVNZLrcJJqfrJCpFfQ/90s.jpg", "title": "EMC Seafood & Raw Bar", "lon": -118.299046, "hours": "11:30 am - 2:30 pm\n4:00 pm - 12:00 am", "lat": 34.063452}, {"category": "Restaurants", "city": "Los Angeles, CA", "addr": "451 S Hewitt St Los Angeles, CA 90013", "rating": "4.0", "imageurl": "https://s3-media3.fl.yelpcdn.com/bphoto/c_ujYvVnC2PBBwvp6QHbrQ/90s.jpg", "title": "Urth Caff\u00e9 - Downtown", "lon": -118.235426, "hours": "6:00 am - 11:00 pm", "lat": 34.041974}, {"category": "Restaurants", "city": "Los Angeles, CA", "addr": "641 N Highland Ave Los Angeles, CA 90036", "rating": "4.0", "imageurl": "https://s3-media4.fl.yelpcdn.com/bphoto/QbxzKkRRmbANhOc1w9-4Wg/90s.jpg", "title": "Pizzeria Mozza", "lon": -118.338801201765, "hours": "12:00 pm - 12:00 am", "lat": 34.0832522379857}, {"category": "Restaurants", "city": "Los Angeles, CA", "addr": "5115 Wilshire Blvd Los Angeles, CA 90036", "rating": "4.5", "imageurl": "https://s3-media2.fl.yelpcdn.com/bphoto/90tPEZZpdjwJ0mdMS_ypjQ/90s.jpg", "title": "Genwa Korean BBQ", "lon": -118.340898970219, "hours": "11:30 am - 10:00 pm", "lat": 34.062321315088}, {"category": "Restaurants", "city": "Los Angeles, CA", "addr": "421 S Main St Los Angeles, CA 90013", "rating": "4.5", "imageurl": "https://s3-media3.fl.yelpcdn.com/bphoto/9D63gCmIesyBQO15NNG9Xw/90s.jpg", "title": "KazuNori | The Original Hand Roll Bar", "lon": -118.247747561303, "hours": "11:30 am - 11:00 pm", "lat": 34.0476390576719}, {"category": "Restaurants", "city": "Los Angeles, CA", "addr": "3500 W 8th St Los Angeles, CA 90005", "rating": "4.5", "imageurl": "https://s3-media3.fl.yelpcdn.com/bphoto/p2Md905NX86CuiLa6nIAFg/90s.jpg", "title": "Slurpin\u2019 Ramen Bar", "lon": -118.306769744705, "hours": "11:30 am - 1:00 am", "lat": 34.0573614429986}, {"category": "Restaurants", "city": "Los Angeles, CA", "addr": "1001 N Alameda St Los Angeles, CA 90012", "rating": "4.0", "imageurl": "https://s3-media1.fl.yelpcdn.com/bphoto/l4cf_tzaRp4iQpVVQaZsmA/90s.jpg", "title": "Philippe the Original", "lon": -118.237025, "hours": "6:00 am - 10:00 pm", "lat": 34.059721}, {"category": "Restaurants", "city": "Los Angeles, CA", "addr": "448 S Hill St Los Angeles, CA 90013", "rating": "4.0", "imageurl": "https://s3-media3.fl.yelpcdn.com/bphoto/4idfbOrmGGVZ0oeedVkg5g/90s.jpg", "title": "Perch", "lon": -118.251395711775, "hours": "4:00 pm - 1:00 am", "lat": 34.0487752647914}, {"category": "Restaurants", "city": "Los Angeles, CA", "addr": "856 S Vermont Ave Ste C Los Angeles, CA 90005", "rating": "4.5", "imageurl": "https://s3-media4.fl.yelpcdn.com/bphoto/ggFJaMlEYD7jBlZMB0zpVA/90s.jpg", "title": "Soowon Galbi KBBQ Restaurant", "lon": -118.291338516533, "hours": "11:30 am - 10:30 pm", "lat": 34.0564415632956}, {"category": "Restaurants", "city": "Los Angeles, CA", "addr": "2927 W Sunset Blvd Los Angeles, CA 90026", "rating": "4.0", "imageurl": "https://s3-media4.fl.yelpcdn.com/bphoto/tTyJx3yb3dAOXkK4V-e8HQ/90s.jpg", "title": "Silverlake Ramen", "lon": -118.273676509195, "hours": "11:30 am - 11:00 pm", "lat": 34.0835268538041}, {"category": "Restaurants", "city": "Los Angeles, CA", "addr": "4163 W 5th St Los Angeles, CA 90020", "rating": "4.5", "imageurl": "https://s3-media1.fl.yelpcdn.com/bphoto/cFhkF5UDhf1JYn_QXWZm_w/90s.jpg", "title": "Han Bat Shul Lung Tang", "lon": -118.3095703125, "hours": "7:00 am - 10:00 pm", "lat": 34.065414}, {"category": "Restaurants", "city": "Los Angeles, CA", "addr": "1929 Hillhurst Ave Los Angeles, CA 90027", "rating": "4.0", "imageurl": "https://s3-media2.fl.yelpcdn.com/bphoto/33WdfQken4seL3GbImkpiA/90s.jpg", "title": "Alcove Caf\u00e9 & Bakery", "lon": -118.28776, "hours": "6:00 am - 12:00 am", "lat": 34.106215}, {"category": "Restaurants", "city": "Los Angeles, CA", "addr": "2771 W Pico Blvd Los Angeles, CA 90006", "rating": "4.5", "imageurl": "https://s3-media4.fl.yelpcdn.com/bphoto/jq-ORXVPKab0nkciZVEhug/90s.jpg", "title": "Papa Cristo\u2019s", "lon": -118.299641746033, "hours": "9:30 am - 3:00 pm", "lat": 34.0474029033579}, {"category": "Restaurants", "city": "Los Angeles, CA", "addr": "435 N Fairfax Ave Los Angeles, CA 90036", "rating": "4.0", "imageurl": "https://s3-media1.fl.yelpcdn.com/bphoto/wk7V9iQQbwJcXsOg3JpZXw/90s.jpg", "title": "Animal", "lon": -118.361585, "hours": "6:00 pm - 10:00 pm", "lat": 34.079289}, {"category": "Restaurants", "city": "Los Angeles, CA", "addr": "714 Traction Ave Los Angeles, CA 90013", "rating": "4.0", "imageurl": "https://s3-media2.fl.yelpcdn.com/bphoto/dSGDl1eAZSsfSDB9_thUUw/90s.jpg", "title": "The Pie Hole", "lon": -118.236253268926, "hours": "9:00 am - 10:00 pm", "lat": 34.0453639042851}, {"category": "Restaurants", "city": "Los Angeles, CA", "addr": "3465 W 6th St C-130 Los Angeles, CA 90020", "rating": "4.0", "imageurl": "https://s3-media1.fl.yelpcdn.com/bphoto/KKNGM3hhLDsMHJ4qGsy5IQ/90s.jpg", "title": "Quarters Korean BBQ", "lon": -118.297687050455, "hours": "11:00 am - 2:00 am", "lat": 34.0640202245113}, {"category": "Restaurants", "city": "Los Angeles, CA", "addr": "1261 W Sunset Blvd Los Angeles, CA 90026", "rating": "4.5", "imageurl": "https://s3-media3.fl.yelpcdn.com/bphoto/tFI18EzdItXSf-ypGnG-7g/90s.jpg", "title": "Guisados", "lon": -118.250448424643, "hours": "10:30 am - 10:00 pm", "lat": 34.0702395145121}, {"category": "Restaurants", "city": "Los Angeles, CA", "addr": "1230 S Western Ave Los Angeles, CA 90006", "rating": "4.0", "imageurl": "https://s3-media4.fl.yelpcdn.com/bphoto/fyDpBBTxNiE2_6cw2C-jTw/90s.jpg", "title": "Road To Seoul", "lon": -118.308937, "hours": "11:00 am - 12:00 am", "lat": 34.048473}, {"category": "Restaurants", "city": "Los Angeles, CA", "addr": "480 S San Vicente Blvd Los Angeles, CA 90048", "rating": "4.5", "imageurl": "https://s3-media4.fl.yelpcdn.com/bphoto/o2f8pIjHxWK-cr8a6DtKLw/90s.jpg", "title": "Sushi by H", "lon": -118.374727046627, "hours": "5:30 pm - 10:00 pm", "lat": 34.0693585562276}, {"category": "Restaurants", "city": "Los Angeles, CA", "addr": "5300 W Olympic Blvd Los Angeles, CA 90019", "rating": "4.5", "imageurl": "https://s3-media1.fl.yelpcdn.com/bphoto/UwOy97LTJUX7kwoYpSVfNg/90s.jpg", "title": "El Chato Taco Truck", "lon": -118.3462844, "hours": "9:00 pm - 1:30 am", "lat": 34.0569155}, {"category": "Restaurants", "city": "Los Angeles, CA", "addr": "332 S Broadway Los Angeles, CA 90013", "rating": "4.0", "imageurl": "https://s3-media2.fl.yelpcdn.com/bphoto/EDR7u3bQGbkGv4IyMb8uLQ/90s.jpg", "title": "Maccheroni Republic", "lon": -118.248552, "hours": "11:00 am - 2:00 pm\n5:00 pm - 9:30 pm", "lat": 34.050039}, {"category": "Restaurants", "city": "Los Angeles, CA", "addr": "3229 Helms Ave Los Angeles, CA 90034", "rating": "3.5", "imageurl": "https://s3-media3.fl.yelpcdn.com/bphoto/qxJvkPBTh4ibxvwJNbeHnw/90s.jpg", "title": "Father\u2019s Office", "lon": -118.384695173189, "hours": "5:00 pm - 1:00 am", "lat": 34.0304642240788}, {"category": "Restaurants", "city": "Los Angeles, CA", "addr": "7313 Beverly Blvd Los Angeles, CA 90036", "rating": "4.5", "imageurl": "https://s3-media2.fl.yelpcdn.com/bphoto/ykLAVSRJJmQmPRd8V8Sy9A/90s.jpg", "title": "Angelini Osteria", "lon": -118.3491477, "hours": "12:00 pm - 2:30 pm\n5:30 pm - 10:30 pm", "lat": 34.0764482}, {"category": "Restaurants", "city": "Los Angeles, CA", "addr": "2100 East Cesar E Chavez Ave Los Angeles, CA 90033", "rating": "4.5", "imageurl": "https://s3-media3.fl.yelpcdn.com/bphoto/eTElPl1k1dJpvcTCh13jPw/90s.jpg", "title": "Guisados", "lon": -118.2114636, "hours": "10:30 am - 8:00 pm", "lat": 34.0481817}, {"category": "Restaurants", "city": "Los Angeles, CA", "addr": "3535 Cahuenga Blvd W Ste 105 Los Angeles, CA 90068", "rating": "4.5", "imageurl": "https://s3-media4.fl.yelpcdn.com/bphoto/62o5Q8j2uqKUxQzjRJD62w/90s.jpg", "title": "Joe\u2019s Falafel", "lon": -118.3573699, "hours": "11:00 am - 10:00 pm", "lat": 34.1332393}, {"category": "Restaurants", "city": "Los Angeles, CA", "addr": "3832 Wilshire Blvd Ste 202 Los Angeles, CA 90010", "rating": "4.0", "imageurl": "https://s3-media1.fl.yelpcdn.com/bphoto/Tcgt8tgpX7kzGmypgCUf0Q/90s.jpg", "title": "M Grill", "lon": -118.310466371477, "hours": "11:30 am - 2:00 pm\n5:30 pm - 9:00 pm", "lat": 34.0614961055747}, {"category": "Restaurants", "city": "Los Angeles, CA", "addr": "1515 S La Brea Ave Los Angeles, CA 90019", "rating": "4.5", "imageurl": "https://s3-media2.fl.yelpcdn.com/bphoto/EnENQLNGtYeRoN1BXM_tBw/90s.jpg", "title": "Leo\u2019s Tacos Truck", "lon": -118.345799446106, "hours": "9:00 am - 3:00 am", "lat": 34.0462229200183}, {"category": "Restaurants", "city": "Los Angeles, CA", "addr": "8809 W Pico Blvd Los Angeles, CA 90035", "rating": "4.5", "imageurl": "https://s3-media1.fl.yelpcdn.com/bphoto/xoKBjmU2kwKu5QJ4j-9vMQ/90s.jpg", "title": "Komodo", "lon": -118.383980020881, "hours": "11:00 am - 9:00 pm", "lat": 34.05487395823}, {"category": "Restaurants", "city": "Los Angeles, CA", "addr": "1521 Griffith Park Blvd Los Angeles, CA 90026", "rating": "4.5", "imageurl": "https://s3-media1.fl.yelpcdn.com/bphoto/r_MZFwsIjwAmbrT1cL6Z1g/90s.jpg", "title": "Pine & Crane", "lon": -118.277172084005, "hours": "12:00 pm - 10:00 pm", "lat": 34.0905963760163}, {"category": "Restaurants", "city": "Los Angeles, CA", "addr": "2575 W Pico Blvd Los Angeles, CA 90006", "rating": "4.0", "imageurl": "https://s3-media2.fl.yelpcdn.com/bphoto/8krRlJQKpQiucTE2rD23oA/90s.jpg", "title": "Dino\u2019s Chicken and Burgers", "lon": -118.293926, "hours": "6:00 am - 11:00 pm", "lat": 34.047441}, {"category": "Restaurants", "city": "Los Angeles, CA", "addr": "408 S Main St Los Angeles, CA 90013", "rating": "4.0", "imageurl": "https://s3-media3.fl.yelpcdn.com/bphoto/xAlvE6zrtZmb-sCodOQRxw/90s.jpg", "title": "B\u00e4co Mercat", "lon": -118.247135, "hours": "11:30 am - 2:30 pm\n5:30 pm - 11:00 pm", "lat": 34.0478814}, {"category": "Restaurants", "city": "Los Angeles, CA", "addr": "6602 Melrose Ave Los Angeles, CA 90038", "rating": "4.0", "imageurl": "https://s3-media2.fl.yelpcdn.com/bphoto/jfE_YqYcEpZd7MawFaKdGw/90s.jpg", "title": "Osteria Mozza", "lon": -118.3389634, "hours": "5:30 pm - 10:00 pm", "lat": 34.0832419}, {"category": "Restaurants", "city": "Los Angeles, CA", "addr": "1514 N Gower St Los Angeles, CA 90028", "rating": "4.0", "imageurl": "https://s3-media2.fl.yelpcdn.com/bphoto/zgBdUfQbfcb0ptd1GzNgaA/90s.jpg", "title": "Roscoe\u2019s House of Chicken & Waffles", "lon": -118.322123587418, "hours": "8:30 am - 12:00 am", "lat": 34.0985500248528}, {"category": "Restaurants", "city": "Los Angeles, CA", "addr": "5466 Wilshire Blvd Los Angeles, CA 90036", "rating": "4.5", "imageurl": "https://s3-media1.fl.yelpcdn.com/bphoto/ZsK6W0-x_N-Dx22tOIX4CQ/90s.jpg", "title": "Milk Jar Cookies", "lon": -118.347790289087, "hours": "11:00 am - 8:00 pm", "lat": 34.0621217190808}, {"category": "Restaurants", "city": "Los Angeles, CA", "addr": "450 E 2nd St Los Angeles, CA 90012", "rating": "5.0", "imageurl": "https://s3-media2.fl.yelpcdn.com/bphoto/unTTr7NaL7CQ6HafLS5lEA/90s.jpg", "title": "Tea Master Matcha Cafe & Green Tea Shop", "lon": -118.238630450645, "hours": "12:00 pm - 9:00 pm", "lat": 34.0470044042883}, {"category": "Restaurants", "city": "Los Angeles, CA", "addr": "3603 W 6th St Los Angeles, CA 90020", "rating": "4.5", "imageurl": "https://s3-media3.fl.yelpcdn.com/bphoto/OLri7_g5vuYOhkaZSXtuFw/90s.jpg", "title": "Yup Dduk La", "lon": -118.3007013, "hours": "11:00 am - 10:00 pm", "lat": 34.064009}, {"category": "Restaurants", "city": "Los Angeles, CA", "addr": "863 S Western Ave Los Angeles, CA 90005", "rating": "4.5", "imageurl": "https://s3-media4.fl.yelpcdn.com/bphoto/mhnWgoy30E-WjfbOmDM8zA/90s.jpg", "title": "Eight Korean BBQ", "lon": -118.309936813492, "hours": "11:30 am - 12:00 am", "lat": 34.0559926754254}, {"category": "Restaurants", "city": "Los Angeles, CA", "addr": "5786 Melrose Ave Los Angeles, CA 90038", "rating": "4.0", "imageurl": "https://s3-media1.fl.yelpcdn.com/bphoto/kdGIlGvC3leTDX72u2OhOw/90s.jpg", "title": "Mario\u2019s Peruvian & Seafood", "lon": -118.3262359, "hours": "11:30 am - 8:00 pm", "lat": 34.0831331}, {"category": "Restaurants", "city": "Los Angeles, CA", "addr": "134 Japanese Village Plz Bldg E Los Angeles, CA 90012", "rating": "4.0", "imageurl": "https://s3-media2.fl.yelpcdn.com/bphoto/B_atHADaHhY7YrRz0_08dg/90s.jpg", "title": "Cafe Dulce", "lon": -118.240377, "hours": "8:00 am - 10:00 pm", "lat": 34.0486789}, {"category": "Restaurants", "city": "Los Angeles, CA", "addr": "5484 Wilshire Blvd Los Angeles, CA 90036", "rating": "4.5", "imageurl": "https://s3-media1.fl.yelpcdn.com/bphoto/xVcLc-Mkoinxs8pGuFnnAw/90s.jpg", "title": "Yuko Kitchen", "lon": -118.3482267, "hours": "11:00 am - 9:30 pm", "lat": 34.0619286}, {"category": "Restaurants", "city": "Los Angeles, CA", "addr": "600 W 7th St Ste 150 Los Angeles, CA 90017", "rating": "4.0", "imageurl": "https://s3-media4.fl.yelpcdn.com/bphoto/BYznkI_20bIeERVAanEJTw/90s.jpg", "title": "SUGARFISH by sushi nozawa", "lon": -118.257194872353, "hours": "11:30 am - 10:00 pm", "lat": 34.0473871154639}, {"category": "Restaurants", "city": "Los Angeles, CA", "addr": "2528 S Figueroa St Los Angeles, CA 90007", "rating": "4.5", "imageurl": "https://s3-media1.fl.yelpcdn.com/bphoto/K8HGdtvSCxAxQYLg65e3Vw/90s.jpg", "title": "Dirt Dog", "lon": -118.275208244705, "hours": "10:30 am - 10:00 pm", "lat": 34.0282923762355}, {"category": "Restaurants", "city": "Los Angeles, CA", "addr": "7111 Melrose Ave Los Angeles, CA 90046", "rating": "4.0", "imageurl": "https://s3-media2.fl.yelpcdn.com/bphoto/ocrE0sRjOB-ZuMDsJ7YhKw/90s.jpg", "title": "Tatsu Ramen", "lon": -118.3446759, "hours": "11:00 am - 2:00 am", "lat": 34.0837107}, {"category": "Restaurants", "city": "Los Angeles, CA", "addr": "3760 S Centinela Ave Los Angeles, CA 90066", "rating": "4.5", "imageurl": "https://s3-media1.fl.yelpcdn.com/bphoto/Y226T8K22kQH7Re-iJz_ZQ/90s.jpg", "title": "Hokkaido Ramen Santouka", "lon": -118.4334459, "hours": "11:00 am - 8:30 pm", "lat": 34.0048774}, {"category": "Restaurants", "city": "Los Angeles, CA", "addr": "3407 W 6th St Ste 101C Los Angeles, CA 90020", "rating": "4.0", "imageurl": "https://s3-media2.fl.yelpcdn.com/bphoto/ujM3FImDGg-67WUlcFbRfg/90s.jpg", "title": "Ham Ji Park", "lon": -118.295838, "hours": "11:00 am - 11:00 pm", "lat": 34.063757}, {"category": "Restaurants", "city": "Los Angeles, CA", "addr": "5006 W Pico Blvd Los Angeles, CA 90019", "rating": "4.0", "imageurl": "https://s3-media1.fl.yelpcdn.com/bphoto/xBcu2glOMNVVkxs5oKL_dw/90s.jpg", "title": "Roscoe\u2019s House of Chicken & Waffles", "lon": -118.3462138, "hours": "8:00 am - 12:00 am", "lat": 34.0475276}, {"category": "Restaurants", "city": "Los Angeles, CA", "addr": "2057 Sawtelle Blvd Los Angeles, CA 90025", "rating": "4.0", "imageurl": "https://s3-media3.fl.yelpcdn.com/bphoto/kNg118WSC98Rhj5bhGRk6Q/90s.jpg", "title": "Tsujita LA Artisan Noodle", "lon": -118.442669604805, "hours": "11:00 am - 2:00 am", "lat": 34.0395785158514}, {"category": "Restaurants", "city": "Los Angeles, CA", "addr": "1513 S Robertson Blvd Los Angeles, CA 90035", "rating": "4.5", "imageurl": "https://s3-media3.fl.yelpcdn.com/bphoto/deMtMdGXWHGI-bHD-xKwdw/90s.jpg", "title": "A Food Affair", "lon": -118.384494, "hours": "5:30 pm - 10:00 pm", "lat": 34.0517988}, {"category": "Restaurants", "city": "Los Angeles, CA", "addr": "3470 W 6th St Ste 9 & 10 Los Angeles, CA 90020", "rating": "4.5", "imageurl": "https://s3-media2.fl.yelpcdn.com/bphoto/3oKgxGNwtW0WY5RRDXsf5g/90s.jpg", "title": "Hangari Bajirak Kalgooksoo", "lon": -118.297570301258, "hours": "10:00 am - 11:00 pm", "lat": 34.0628602582049}, {"category": "Restaurants", "city": "Los Angeles, CA", "addr": "132 S Central Ave Los Angeles, CA 90012", "rating": "4.0", "imageurl": "https://s3-media4.fl.yelpcdn.com/bphoto/COFv1hp5eS2J5PSdmMLMCQ/90s.jpg", "title": "Shin-Sen-Gumi Hakata Ramen - Little Tokyo", "lon": -118.2389599, "hours": "11:00 am - 11:00 pm", "lat": 34.0482791}, {"category": "Restaurants", "city": "Los Angeles, CA", "addr": "5908 Sunset Blvd Los Angeles, CA 90028", "rating": "4.5", "imageurl": "https://s3-media2.fl.yelpcdn.com/bphoto/_M47V7R2RoiveGLNQemI2Q/90s.jpg", "title": "Hoy-Ka Thai Restaurant", "lon": -118.318468486426, "hours": "11:00 am - 3:00 pm\n5:00 pm - 11:00 pm", "lat": 34.0979189878207}, {"category": "Restaurants", "city": "Los Angeles, CA", "addr": "3343 W Pico Blvd Los Angeles, CA 90019", "rating": "4.5", "imageurl": "https://s3-media1.fl.yelpcdn.com/bphoto/w7sR5bGy2FMwcYDKPEcD2A/90s.jpg", "title": "Pasta Sisters", "lon": -118.317234, "hours": "11:30 am - 8:30 pm", "lat": 34.0476}, {"category": "Restaurants", "city": "Los Angeles, CA", "addr": "541 S Spring St Ste 101 Los Angeles, CA 90013", "rating": "4.5", "imageurl": "https://s3-media4.fl.yelpcdn.com/bphoto/n_BRYnN668g33o1uFUDdYg/90s.jpg", "title": "Guisados DTLA", "lon": -118.250679851854, "hours": "9:00 am - 11:00 pm", "lat": 34.0465305975394}, {"category": "Restaurants", "city": "Los Angeles, CA", "addr": "3377 Wilshire Blvd Ste 115 Los Angeles, CA 90010", "rating": "4.0", "imageurl": "https://s3-media1.fl.yelpcdn.com/bphoto/L4vvmc-h7f-V6Sgj4U7QOA/90s.jpg", "title": "The Boiling Crab", "lon": -118.297670715344, "hours": "3:00 pm - 10:00 pm", "lat": 34.0624249247685}, {"category": "Restaurants", "city": "Los Angeles, CA", "addr": "709 N La Brea Ave Los Angeles, CA 90038", "rating": "3.5", "imageurl": "https://s3-media1.fl.yelpcdn.com/bphoto/zIUyCAVVSB8zJvFI23uTFQ/90s.jpg", "title": "Pink\u2019s Hot Dogs", "lon": -118.3442521, "hours": "9:30 am - 2:00 am", "lat": 34.0839049}, {"category": "Restaurants", "city": "Los Angeles, CA", "addr": "3540 W 3rd St Los Angeles, CA 90020", "rating": "4.0", "imageurl": "https://s3-media4.fl.yelpcdn.com/bphoto/eIZqZ6IY1rMJ8Pmzo6Gc3Q/90s.jpg", "title": "California Donuts", "lon": -118.2930862, "hours": "Open 24 hours", "lat": 34.0687776}, {"category": "Restaurants", "city": "Los Angeles, CA", "addr": "317 S Broadway Los Angeles, CA 90013", "rating": "4.0", "imageurl": "https://s3-media1.fl.yelpcdn.com/bphoto/M_JtOG0VOxPrOHRYCExXZQ/90s.jpg", "title": "Grand Central Market", "lon": -118.248635262566, "hours": "8:00 am - 10:00 pm", "lat": 34.0506285480471}, {"category": "Restaurants", "city": "Los Angeles, CA", "addr": "3655 S Grand Ave Ste C6 Los Angeles, CA 90007", "rating": "4.5", "imageurl": "https://s3-media4.fl.yelpcdn.com/bphoto/3ch4AcGy7sl_aybqhgRFOA/90s.jpg", "title": "Chichen Itza Restaurant", "lon": -118.2783045, "hours": "9:00 am - 9:00 pm", "lat": 34.0173155}, {"category": "Restaurants", "city": "Los Angeles, CA", "addr": "3201 Riverside Dr Los Angeles, CA 90027", "rating": "4.5", "imageurl": "https://s3-media4.fl.yelpcdn.com/bphoto/kuEtwFZzkqf1dZIRDfBmwQ/90s.jpg", "title": "Ricky\u2019s Fish Tacos", "lon": -118.269945, "hours": "12:00 pm - 4:00 pm", "lat": 34.114824}, {"category": "Restaurants", "city": "Los Angeles, CA", "addr": "8350 W 3rd St Los Angeles, CA 90048", "rating": "4.0", "imageurl": "https://s3-media1.fl.yelpcdn.com/bphoto/owSoZehIewQ4G5GhhB_KCA/90s.jpg", "title": "Joan\u2019s on Third", "lon": -118.37179, "hours": "8:00 am - 8:00 pm", "lat": 34.072893}, {"category": "Restaurants", "city": "Los Angeles, CA", "addr": "207 Ord St Los Angeles, CA 90012", "rating": "4.0", "imageurl": "https://s3-media2.fl.yelpcdn.com/bphoto/RBEznBsaTA7R7kSDnA6oPg/90s.jpg", "title": "Little Jewel of New Orleans", "lon": -118.238083, "hours": "10:30 am - 9:30 pm", "lat": 34.060099}, {"category": "Restaurants", "city": "Los Angeles, CA", "addr": "333 S Alameda St Ste 310 Los Angeles, CA 90013", "rating": "4.0", "imageurl": "https://s3-media1.fl.yelpcdn.com/bphoto/NtRxoJeWbyeMs83Egfs2Vw/90s.jpg", "title": "Shojin Downtown", "lon": -118.2383234, "hours": "5:30 pm - 10:30 pm", "lat": 34.0445344}, {"category": "Restaurants", "city": "Los Angeles, CA", "addr": "532 S Western Ave Los Angeles, CA 90020", "rating": "4.0", "imageurl": "https://s3-media1.fl.yelpcdn.com/bphoto/pwo0RcW9uYe09YeUqJxUmA/90s.jpg", "title": "Beer Belly", "lon": -118.308546, "hours": "5:00 pm - 11:00 pm", "lat": 34.064332}, {"category": "Restaurants", "city": "Los Angeles, CA", "addr": "8164 W 3rd St Los Angeles, CA 90048", "rating": "4.0", "imageurl": "https://s3-media4.fl.yelpcdn.com/bphoto/1ThaDFt3XWhJ9R8vxmm-Lg/90s.jpg", "title": "The Little Door", "lon": -118.367483, "hours": "6:00 pm - 12:00 am", "lat": 34.072082}, {"category": "Restaurants", "city": "Los Angeles, CA", "addr": "W Ave 26 Humboldt St Los Angeles, CA 90031", "rating": "4.5", "imageurl": "https://s3-media2.fl.yelpcdn.com/bphoto/Mo92AkdMQ2LA-G6jY_QzYA/90s.jpg", "title": "Ave 26 Taco Stand", "lon": -118.217636767688, "hours": "5:00 pm - 12:00 am", "lat": 34.0803030337641}, {"category": "Restaurants", "city": "Los Angeles, CA", "addr": "175 S Fairfax Ave Ste B Los Angeles, CA 90036", "rating": "4.5", "imageurl": "https://s3-media2.fl.yelpcdn.com/bphoto/jNMGttcPLAJT66ly69XjhQ/90s.jpg", "title": "Mendocino Farms", "lon": -118.362629252157, "hours": "11:00 am - 9:00 pm", "lat": 34.0722521794486}, {"category": "Restaurants", "city": "Los Angeles, CA", "addr": "343 E 1st St Los Angeles, CA 90012", "rating": "4.5", "imageurl": "https://s3-media1.fl.yelpcdn.com/bphoto/Z_ZWW8H7gdKTaFqWQ0KiaA/90s.jpg", "title": "Sushi Enya", "lon": -118.2398124, "hours": "5:30 pm - 11:00 pm", "lat": 34.0496519}, {"category": "Restaurants", "city": "Los Angeles, CA", "addr": "5107 York Blvd Los Angeles, CA 90042", "rating": "4.5", "imageurl": "https://s3-media2.fl.yelpcdn.com/bphoto/JDxS8IvWE3IPEOFyXisxyQ/90s.jpg", "title": "Donut Friend", "lon": -118.2045095, "hours": "7:00 am - 10:00 pm", "lat": 34.1210335}, {"category": "Restaurants", "city": "Los Angeles, CA", "addr": "4959 Santa Monica Blvd Los Angeles, CA 90029", "rating": "4.5", "imageurl": "https://s3-media3.fl.yelpcdn.com/bphoto/51Ew_R8Cpk1MlA3jZXaXqA/90s.jpg", "title": "DeSano Pizza Bakery", "lon": -118.297762911045, "hours": "11:30 am - 10:00 pm", "lat": 34.0910099739038}, {"category": "Restaurants", "city": "Los Angeles, CA", "addr": "7422 Melrose Ave Los Angeles, CA 90046", "rating": "4.5", "imageurl": "https://s3-media1.fl.yelpcdn.com/bphoto/_QNHjiBW2BG3ZnqT5pqJPw/90s.jpg", "title": "Ta-eem Grill", "lon": -118.3518564, "hours": "11:00 am - 10:00 pm", "lat": 34.0834879}, {"category": "Restaurants", "city": "Los Angeles, CA", "addr": "4651 W Adams Blvd Los Angeles, CA 90016", "rating": "4.5", "imageurl": "https://s3-media2.fl.yelpcdn.com/bphoto/NMVgYI9hVrVNjPC0mdGKyQ/90s.jpg", "title": "Taqueria Los Anaya", "lon": -118.3418393, "hours": "7:00 am - 9:00 pm", "lat": 34.0327213}, {"category": "Restaurants", "city": "Los Angeles, CA", "addr": "2000 N Fuller Ave Los Angeles, CA 90046", "rating": "4.0", "imageurl": "https://s3-media2.fl.yelpcdn.com/bphoto/j-TLD7Wgq3IgqoIceSqveQ/90s.jpg", "title": "Runyon Canyon Park", "lon": -118.349050283432, "hours": "6:00 am - 9:00 pm", "lat": 34.1052842673448}, {"category": "Restaurants", "city": "Los Angeles, CA", "addr": "5301 W Sunset Blvd Los Angeles, CA 90027", "rating": "4.0", "imageurl": "https://s3-media3.fl.yelpcdn.com/bphoto/dDa-evyHmTWOVnRAi5IjFw/90s.jpg", "title": "Pa Ord Noodle", "lon": -118.306131251156, "hours": "11:00 am - 11:45 pm", "lat": 34.0985027788903}, {"category": "Restaurants", "city": "Los Angeles, CA", "addr": "8256 Beverly Blvd Los Angeles, CA 90048", "rating": "4.0", "imageurl": "https://s3-media1.fl.yelpcdn.com/bphoto/Su6hAn4L13LnK_1aZ-dDqQ/90s.jpg", "title": "Bao Dim Sum House", "lon": -118.3698749, "hours": "11:00 am - 10:00 pm", "lat": 34.0758417}, {"category": "Restaurants", "city": "Los Angeles, CA", "addr": "544 S Grand Ave Los Angeles, CA 90071", "rating": "4.0", "imageurl": "https://s3-media4.fl.yelpcdn.com/bphoto/lNP5AaJspM80JaBdBJgj_w/90s.jpg", "title": "Water Grill- Los Angeles", "lon": -118.254690932541, "hours": "11:30 am - 10:00 pm", "lat": 34.0490371292754}, {"category": "Restaurants", "city": "Los Angeles, CA", "addr": "639 N Larchmont Blvd Los Angeles, CA 90004", "rating": "4.0", "imageurl": "https://s3-media4.fl.yelpcdn.com/bphoto/cmFC7aGhD1z2x1AZcHv4bw/90s.jpg", "title": "Cafe Gratitude", "lon": -118.3240494, "hours": "8:00 am - 10:00 pm", "lat": 34.0828055}, {"category": "Restaurants", "city": "Los Angeles, CA", "addr": "2338 Workman St Los Angeles, CA 90031", "rating": "4.5", "imageurl": "https://s3-media1.fl.yelpcdn.com/bphoto/rfgW2cVE6mnPos9Fjev2xA/90s.jpg", "title": "Corn Man", "lon": -118.214694509262, "hours": "10:30 pm - 2:00 am", "lat": 34.0725774690603}, {"category": "Restaurants", "city": "Los Angeles, CA", "addr": "1760 Hillhurst Ave Los Angeles, CA 90027", "rating": "4.0", "imageurl": "https://s3-media4.fl.yelpcdn.com/bphoto/qFvwKZX9HksLaH9gD3zbXw/90s.jpg", "title": "Home Restaurant - Los Feliz", "lon": -118.287297, "hours": "9:00 am - 10:00 pm", "lat": 34.103134}, {"category": "Restaurants", "city": "Los Angeles, CA", "addr": "698 S Vermont Ave Ste 109 Los Angeles, CA 90005", "rating": "4.5", "imageurl": "https://s3-media4.fl.yelpcdn.com/bphoto/0pHO_R5pR-dpSBDbDZ2bYQ/90s.jpg", "title": "Kobawoo House", "lon": -118.2912198, "hours": "11:00 am - 10:00 pm", "lat": 34.0602242}, {"category": "Restaurants", "city": "Los Angeles, CA", "addr": "151 N Western Ave Los Angeles, CA 90004", "rating": "4.0", "imageurl": "https://s3-media4.fl.yelpcdn.com/bphoto/WXZp3WBMkGmFRz6m8vWURQ/90s.jpg", "title": "The Bun Shop", "lon": -118.3091902, "hours": "11:30 am - 10:00 pm", "lat": 34.0745153}, {"category": "Restaurants", "city": "Los Angeles, CA", "addr": "801 S Hope St Unit A Los Angeles, CA 90017", "rating": "4.5", "imageurl": "https://s3-media1.fl.yelpcdn.com/bphoto/VH8I8ObwmRCbzEEQePv1OA/90s.jpg", "title": "Philz Coffee", "lon": -118.259583, "hours": "6:00 am - 9:00 pm", "lat": 34.0463414}, {"category": "Restaurants", "city": "Los Angeles, CA", "addr": "621 S Western Ave Ste 208A Los Angeles, CA 90005", "rating": "4.0", "imageurl": "https://s3-media2.fl.yelpcdn.com/bphoto/bHlEkxF_3n093QHDP2pDww/90s.jpg", "title": "Sul & Beans", "lon": -118.309997512967, "hours": "12:00 pm - 11:00 pm", "lat": 34.0629013806047}, {"category": "Restaurants", "city": "Los Angeles, CA", "addr": "3014 W Olympic Blvd Los Angeles, CA 90006", "rating": "4.0", "imageurl": "https://s3-media4.fl.yelpcdn.com/bphoto/vVd90oRt6rvsda6ofVZpqg/90s.jpg", "title": "Guelaguetza Restaurante", "lon": -118.3006681, "hours": "9:00 am - 10:00 pm", "lat": 34.0524074}, {"category": "Restaurants", "city": "Los Angeles, CA", "addr": "10100 Constellation Blvd Los Angeles, CA 90067", "rating": "4.0", "imageurl": "https://s3-media1.fl.yelpcdn.com/bphoto/eQRIThsCAcXSOVuOq9oqFQ/90s.jpg", "title": "Craft", "lon": -118.414339605181, "hours": "11:30 am - 2:30 pm\n3:00 pm - 5:00 pm\n5:30 pm - 9:30 pm", "lat": 34.059600202614}, {"category": "Restaurants", "city": "Los Angeles, CA", "addr": "3470 W 6th St Ste 7 Los Angeles, CA 90020", "rating": "4.5", "imageurl": "https://s3-media1.fl.yelpcdn.com/bphoto/ws46vP-TsWjyikqvtcX7pw/90s.jpg", "title": "Sun Nong Dan", "lon": -118.297481238021, "hours": "Open 24 hours", "lat": 34.0630836857803}, {"category": "Restaurants", "city": "Los Angeles, CA", "addr": "5900 Hollywood Blvd Ste B Los Angeles, CA 90028", "rating": "4.0", "imageurl": "https://s3-media3.fl.yelpcdn.com/bphoto/7U8SgURqVsrsTjymFyRaug/90s.jpg", "title": "Palms Thai Restaurant", "lon": -118.3184458, "hours": "11:00 am - 12:00 am", "lat": 34.1011525}, {"category": "Restaurants", "city": "Los Angeles, CA", "addr": "515 W 7th St Fl 2 Los Angeles, CA 90014", "rating": "4.0", "imageurl": "https://s3-media3.fl.yelpcdn.com/bphoto/2nUQQEEiI-iTTaXSgg0P8g/90s.jpg", "title": "Seven Grand", "lon": -118.2558135, "hours": "3:00 pm - 2:00 am", "lat": 34.047132}, {"category": "Restaurants", "city": "Los Angeles, CA", "addr": "223 N Larchmont Blvd Los Angeles, CA 90004", "rating": "4.5", "imageurl": "https://s3-media4.fl.yelpcdn.com/bphoto/XrGGFJ4dTwlXl1gU_5PuAA/90s.jpg", "title": "Larchmont Village Wine Spirits & Cheese", "lon": -118.323881, "hours": "10:00 am - 7:00 pm", "lat": 34.075313}, {"category": "Restaurants", "city": "Los Angeles, CA", "addr": "5450 Santa Monica Blvd Los Angeles, CA 90029", "rating": "4.5", "imageurl": "https://s3-media3.fl.yelpcdn.com/bphoto/VnKxbMmQXncPXiFuoGohgA/90s.jpg", "title": "Tlayuda LA Mexican Restaurant", "lon": -118.307939, "hours": "9:00 am - 9:00 pm", "lat": 34.0906004}, {"category": "Restaurants", "city": "Los Angeles, CA", "addr": "351 E 2nd St Los Angeles, CA 90012", "rating": "4.0", "imageurl": "https://s3-media4.fl.yelpcdn.com/bphoto/LAyYu4gFCqvH_8lYJMTuyw/90s.jpg", "title": "Komasa Sushi", "lon": -118.2403525, "hours": "5:30 pm - 10:00 pm", "lat": 34.0484909}, {"category": "Restaurants", "city": "Los Angeles, CA", "addr": "7181 W Sunset Blvd Los Angeles, CA 90046", "rating": "3.5", "imageurl": "https://s3-media2.fl.yelpcdn.com/bphoto/JGxUH9xqSBK0WYOPuxMNqQ/90s.jpg", "title": "Bossa Nova on Sunset", "lon": -118.3466992, "hours": "11:00 am - 3:30 am", "lat": 34.0982846}, {"category": "Restaurants", "city": "Los Angeles, CA", "addr": "5210 Melrose Ave Los Angeles, CA 90038", "rating": "4.0", "imageurl": "https://s3-media4.fl.yelpcdn.com/bphoto/WXLvRFgyMum8qL32fJx_1Q/90s.jpg", "title": "Osteria La Buca", "lon": -118.31393718099, "hours": "11:30 am - 2:30 pm\n6:00 pm - 10:30 pm", "lat": 34.0833366755519}, {"category": "Restaurants", "city": "Los Angeles, CA", "addr": "8700 W 3rd St Los Angeles, CA 90048", "rating": "4.0", "imageurl": "https://s3-media1.fl.yelpcdn.com/bphoto/8e34NUxzgQXyBSqf_sVH-A/90s.jpg", "title": "AOC", "lon": -118.3819186, "hours": "11:30 am - 10:00 pm", "lat": 34.0733975}, {"category": "Restaurants", "city": "Los Angeles, CA", "addr": "3455 Overland Ave Los Angeles, CA 90034", "rating": "4.5", "imageurl": "https://s3-media4.fl.yelpcdn.com/bphoto/OXtibIFT2bX7Fjxnk7NdNw/90s.jpg", "title": "n/naka", "lon": -118.41222, "hours": "6:00 pm - 9:00 pm", "lat": 34.0251314}, {"category": "Restaurants", "city": "Los Angeles, CA", "addr": "765 Wall St Los Angeles, CA 90014", "rating": "4.0", "imageurl": "https://s3-media4.fl.yelpcdn.com/bphoto/8fDg2xpevvwQmRhCyPCscw/90s.jpg", "title": "Poppy + Rose", "lon": -118.2500357, "hours": "6:00 am - 3:00 pm", "lat": 34.0406464}, {"category": "Restaurants", "city": "Los Angeles, CA", "addr": "108 W 2nd St Los Angeles, CA 90012", "rating": "4.0", "imageurl": "https://s3-media2.fl.yelpcdn.com/bphoto/pU8U9h6GgpoOKOr3DBAzOA/90s.jpg", "title": "The Edison", "lon": -118.2448504, "hours": "5:00 pm - 2:00 am", "lat": 34.0509671}, {"category": "Restaurants", "city": "Los Angeles, CA", "addr": "7963 Melrose Ave Los Angeles, CA 90046", "rating": "4.5", "imageurl": "https://s3-media1.fl.yelpcdn.com/bphoto/_6KpZIiOblEVjieIWEE7BQ/90s.jpg", "title": "Carlitos Gardel Argentine Steakhouse", "lon": -118.3631913, "hours": "6:00 pm - 11:00 pm", "lat": 34.0839438}, {"category": "Restaurants", "city": "Los Angeles, CA", "addr": "2308 S Union Ave Los Angeles, CA 90007", "rating": "4.0", "imageurl": "https://s3-media4.fl.yelpcdn.com/bphoto/gg0P3dCC7EGX_lxFfdrcVg/90s.jpg", "title": "Bacaro LA", "lon": -118.2834767, "hours": "5:00 pm - 10:00 pm", "lat": 34.0345067}, {"category": "Restaurants", "city": "Los Angeles, CA", "addr": "955 S Vermont Ave Los Angeles, CA 90006", "rating": "4.0", "imageurl": "https://s3-media1.fl.yelpcdn.com/bphoto/8jVhLK5YqkWuhcNeRb2htg/90s.jpg", "title": "Park\u2019s BBQ", "lon": -118.2920384, "hours": "11:00 am - 11:00 pm", "lat": 34.0538792}, {"category": "Restaurants", "city": "Los Angeles, CA", "addr": "1700 Sunset Blvd Los Angeles, CA 90026", "rating": "4.0", "imageurl": "https://s3-media2.fl.yelpcdn.com/bphoto/3ybTeEfG24gp4tQNFcwatg/90s.jpg", "title": "Sage Plant Based Bistro and Brewery", "lon": -118.258714, "hours": "8:00 am - 12:00 am", "lat": 34.0771568}, {"category": "Restaurants", "city": "Los Angeles, CA", "addr": "2498 S Figueroa St Los Angeles, CA 90007", "rating": "4.0", "imageurl": "https://s3-media4.fl.yelpcdn.com/bphoto/JJUNh7mdytVyeZ_Uyt2L7w/90s.jpg", "title": "Jacks N Joe", "lon": -118.2749923, "hours": "7:00 am - 1:30 pm", "lat": 34.0287607}, {"category": "Restaurants", "city": "Los Angeles, CA", "addr": "2717 W Olympic Blvd Ste 108 Los Angeles, CA 90006", "rating": "4.0", "imageurl": "https://s3-media3.fl.yelpcdn.com/bphoto/SElY-5or84_hiwvCdcNpjw/90s.jpg", "title": "Beverly Soon Tofu Restaurant", "lon": -118.2923331, "hours": "11:00 am - 10:00 pm", "lat": 34.0531087}, {"category": "Restaurants", "city": "Los Angeles, CA", "addr": "714A S Los Angeles St Unit A Los Angeles, CA 90014", "rating": "4.5", "imageurl": "https://s3-media4.fl.yelpcdn.com/bphoto/BH44qALoRO6x2h_Jxg0uqA/90s.jpg", "title": "Bronzed Aussie", "lon": -118.250665, "hours": "11:00 am - 3:00 pm", "lat": 34.042825}, {"category": "Restaurants", "city": "Los Angeles, CA", "addr": "426 N Fairfax Ave Los Angeles, CA 90036", "rating": "4.0", "imageurl": "https://s3-media4.fl.yelpcdn.com/bphoto/cFMPbSyVVwFcPG1imZOVKw/90s.jpg", "title": "The Golden State", "lon": -118.3611354, "hours": "12:00 pm - 9:00 pm", "lat": 34.0790536}, {"category": "Restaurants", "city": "Los Angeles, CA", "addr": "2141 W Sunset Blvd Los Angeles, CA 90026", "rating": "4.0", "imageurl": "https://s3-media3.fl.yelpcdn.com/bphoto/x4ikDlFgJVQ8g4xKVpESUg/90s.jpg", "title": "Mohawk Bend", "lon": -118.264732207155, "hours": "11:30 am - 11:30 pm", "lat": 34.0775496584095}, {"category": "Restaurants", "city": "Los Angeles, CA", "addr": "2005 Colorado Blvd Los Angeles, CA 90041", "rating": "4.0", "imageurl": "https://s3-media1.fl.yelpcdn.com/bphoto/_26vXAGG_mawjbhKA-bkYQ/90s.jpg", "title": "The Oinkster", "lon": -118.2105077, "hours": "11:00 am - 10:00 pm", "lat": 34.1395328}, {"category": "Restaurants", "city": "Los Angeles, CA", "addr": "524 S Main St Los Angeles, CA 90013", "rating": "4.0", "imageurl": "https://s3-media1.fl.yelpcdn.com/bphoto/f7veXwsUe1nnybLj4Q6tHw/90s.jpg", "title": "Nickel Diner", "lon": -118.248992, "hours": "8:00 am - 3:30 pm", "lat": 34.046219}, {"category": "Restaurants", "city": "Los Angeles, CA", "addr": "8474 W 3rd St Los Angeles, CA 90048", "rating": "4.5", "imageurl": "https://s3-media3.fl.yelpcdn.com/bphoto/9mIkvDB7ZcZLn9gP4sKxGg/90s.jpg", "title": "Berlins", "lon": -118.375559776552, "hours": "11:00 am - 9:30 pm", "lat": 34.0729528592999}, {"category": "Restaurants", "city": "Los Angeles, CA", "addr": "4427 W Sunset Blvd Los Angeles, CA 90027", "rating": "4.5", "imageurl": "https://s3-media1.fl.yelpcdn.com/bphoto/dxeCFoK4OKTWMOcXA2c-TA/90s.jpg", "title": "Tiki-Ti Cocktail Lounge", "lon": -118.285796, "hours": "4:00 pm - 2:00 am", "lat": 34.097488}, {"category": "Restaurants", "city": "Los Angeles, CA", "addr": "3185 W Olympic Blvd Los Angeles, CA 90006", "rating": "4.0", "imageurl": "https://s3-media4.fl.yelpcdn.com/bphoto/0NxCZrLqZV_uGN1Zndz-Ag/90s.jpg", "title": "Yuchun", "lon": -118.3058503, "hours": "11:00 am - 9:00 pm", "lat": 34.0528831}, {"category": "Restaurants", "city": "Los Angeles, CA", "addr": "7361 W Sunset Blvd Los Angeles, CA 90046", "rating": "4.5", "imageurl": "https://s3-media3.fl.yelpcdn.com/bphoto/Q7waCooGUJt6V8d-LOIHmQ/90s.jpg", "title": "Chibiscus Asian Cafe", "lon": -118.3501071, "hours": "11:30 am - 4:00 pm\n5:00 pm - 10:30 pm", "lat": 34.0981492}, {"category": "Restaurants", "city": "Los Angeles, CA", "addr": "5257 Hollywood Blvd Los Angeles, CA 90027", "rating": "4.0", "imageurl": "https://s3-media2.fl.yelpcdn.com/bphoto/9OB3rx_U8m33FgmCtq0G-Q/90s.jpg", "title": "Ruen Pair", "lon": -118.3054514, "hours": "11:00 am - 2:30 am", "lat": 34.1022447}, {"category": "Restaurants", "city": "Los Angeles, CA", "addr": "1544 N Cahuenga Blvd Los Angeles, CA 90028", "rating": "4.0", "imageurl": "https://s3-media4.fl.yelpcdn.com/bphoto/BulnIX9zyAjkC6GVxskq_w/90s.jpg", "title": "Stout Burgers & Beers", "lon": -118.3293462, "hours": "11:30 am - 4:00 am", "lat": 34.0994455}, {"category": "Restaurants", "city": "Los Angeles, CA", "addr": "609 N La Brea Ave Los Angeles, CA 90036", "rating": "4.0", "imageurl": "https://s3-media2.fl.yelpcdn.com/bphoto/5PGKR-JwhWvIIHZsZyAgzA/90s.jpg", "title": "Bludso\u2019s Bar & Que", "lon": -118.3442326, "hours": "11:30 am - 3:00 pm\n5:00 pm - 10:00 pm", "lat": 34.0821746}, {"category": "Restaurants", "city": "Los Angeles, CA", "addr": "911 Seward St Los Angeles, CA 90038", "rating": "4.0", "imageurl": "https://s3-media1.fl.yelpcdn.com/bphoto/W6LH2CbWyYvdC7OAoiIajg/90s.jpg", "title": "Grub", "lon": -118.333356, "hours": "11:00 am - 3:00 pm", "lat": 34.087631}, {"category": "Restaurants", "city": "Los Angeles, CA", "addr": "1650 Hillhurst Ave Los Angeles, CA 90027", "rating": "4.0", "imageurl": "https://s3-media3.fl.yelpcdn.com/bphoto/_b80gYAuYim8AaZPuggYSQ/90s.jpg", "title": "Best Fish Taco In Ensenada", "lon": -118.2872313, "hours": "11:00 am - 10:00 pm", "lat": 34.1010784}, {"category": "Restaurants", "city": "Los Angeles, CA", "addr": "3922 W Sunset Blvd Los Angeles, CA 90029", "rating": "4.0", "imageurl": "https://s3-media3.fl.yelpcdn.com/bphoto/Pe4P-7DhoqSmVMxdOK_bjQ/90s.jpg", "title": "Intelligentsia Coffee", "lon": -118.280311, "hours": "6:00 am - 8:00 pm", "lat": 34.092263}, {"category": "Restaurants", "city": "Los Angeles, CA", "addr": "419 N Fairfax Ave Los Angeles, CA 90036", "rating": "3.5", "imageurl": "https://s3-media2.fl.yelpcdn.com/bphoto/SG7lNHVWgV3_OfVABQ2Tnw/90s.jpg", "title": "Canter\u2019s Deli", "lon": -118.361875, "hours": "Open 24 hours", "lat": 34.0789742}, {"category": "Restaurants", "city": "Los Angeles, CA", "addr": "1712 Colorado Blvd Los Angeles, CA 90041", "rating": "4.5", "imageurl": "https://s3-media3.fl.yelpcdn.com/bphoto/MZ0MtLsTi7QIvkIaCVw4gw/90s.jpg", "title": "Cafe Beaujolais", "lon": -118.2041564, "hours": "5:00 pm - 9:30 pm", "lat": 34.1391364}, {"category": "Restaurants", "city": "Los Angeles, CA", "addr": "7920 W 3rd St Los Angeles, CA 90048", "rating": "4.5", "imageurl": "https://s3-media3.fl.yelpcdn.com/bphoto/fH1VZES7igQLPlm9-zTdMA/90s.jpg", "title": "Carmela Ice Cream", "lon": -118.3622255, "hours": "2:00 pm - 11:00 pm", "lat": 34.0715865}, {"category": "Restaurants", "city": "Los Angeles, CA", "addr": "1262 Crenshaw Blvd Los Angeles, CA 90019", "rating": "4.0", "imageurl": "https://s3-media1.fl.yelpcdn.com/bphoto/pr_6Y4axtdl28Ghks3yzeQ/90s.jpg", "title": "Gus\u2019s World Famous Fried Chicken", "lon": -118.326348, "hours": "11:00 am - 9:00 pm", "lat": 34.0480944}, {"category": "Restaurants", "city": "Los Angeles, CA", "addr": "8142 W 3rd St Los Angeles, CA 90048", "rating": "4.0", "imageurl": "https://s3-media4.fl.yelpcdn.com/bphoto/XBbGOo6eFWNS0DZG5caUGg/90s.jpg", "title": "Little Next Door", "lon": -118.36736, "hours": "11:30 am - 10:00 pm", "lat": 34.0720869}, {"category": "Restaurants", "city": "Los Angeles, CA", "addr": "4348 Fountain Ave Los Angeles, CA 90029", "rating": "4.0", "imageurl": "https://s3-media4.fl.yelpcdn.com/bphoto/J39jJJy6_Mx0NABdvxjsag/90s.jpg", "title": "The Kitchen", "lon": -118.284453105274, "hours": "11:00 am - 12:00 am", "lat": 34.0957165722728}, {"category": "Restaurants", "city": "Los Angeles, CA", "addr": "8370 W 3rd St Los Angeles, CA 90048", "rating": "4.0", "imageurl": "https://s3-media4.fl.yelpcdn.com/bphoto/cTYIGTUIfsTs5qYhehdmwQ/90s.jpg", "title": "Son of a Gun", "lon": -118.37251, "hours": "12:00 pm - 3:00 pm\n6:00 pm - 10:00 pm", "lat": 34.072706}, {"category": "Restaurants", "city": "Los Angeles, CA", "addr": "727 N Broadway Unit 117 Los Angeles, CA 90012", "rating": "4.0", "imageurl": "https://s3-media4.fl.yelpcdn.com/bphoto/Sh0Mv-flkrz8SVYnVjDnTQ/90s.jpg", "title": "Chego!", "lon": -118.239636488423, "hours": "11:00 am - 9:00 pm", "lat": 34.0614021455757}, {"category": "Restaurants", "city": "Los Angeles, CA", "addr": "1013 Alpine St Los Angeles, CA 90012", "rating": "4.5", "imageurl": "https://s3-media2.fl.yelpcdn.com/bphoto/0XZobHbTBf6hDL1jkpq8nA/90s.jpg", "title": "Eastside Market Italian Deli", "lon": -118.246493308503, "hours": "8:00 am - 4:00 pm", "lat": 34.0650500417879}, {"category": "Restaurants", "city": "Los Angeles, CA", "addr": "3330 W Olympic Blvd Los Angeles, CA 90019", "rating": "4.0", "imageurl": "https://s3-media1.fl.yelpcdn.com/bphoto/4tXKVkmm7hO53w0eQeXuxA/90s.jpg", "title": "Chosun Galbee", "lon": -118.310428, "hours": "11:00 am - 11:00 pm", "lat": 34.052144}, {"category": "Restaurants", "city": "Los Angeles, CA", "addr": "1267 W Temple St Los Angeles, CA 90026", "rating": "4.0", "imageurl": "https://s3-media1.fl.yelpcdn.com/bphoto/BGLwxtGbhX-o2MHPTgAOrg/90s.jpg", "title": "The Park\u2019s Finest", "lon": -118.254266053011, "hours": "5:00 pm - 10:00 pm", "lat": 34.0665313022035}, {"category": "Restaurants", "city": "Los Angeles, CA", "addr": "698 S Vermont Ave Ste 103 Los Angeles, CA 90005", "rating": "4.0", "imageurl": "https://s3-media3.fl.yelpcdn.com/bphoto/FMNflKaQyqcXBeC_MlbWEA/90s.jpg", "title": "Alchemist Coffee Project", "lon": -118.291278, "hours": "7:30 am - 10:00 pm", "lat": 34.060116}, {"category": "Restaurants", "city": "Los Angeles, CA", "addr": "444 S Flower St Los Angeles, CA 90071", "rating": "4.5", "imageurl": "https://s3-media4.fl.yelpcdn.com/bphoto/xplivgbY3eRuBsYnJkd76A/90s.jpg", "title": "Mendocino Farms", "lon": -118.2550754, "hours": "11:00 am - 7:00 pm", "lat": 34.0516024}, {"category": "Restaurants", "city": "Los Angeles, CA", "addr": "7229 Melrose Ave Los Angeles, CA 90046", "rating": "4.0", "imageurl": "https://s3-media1.fl.yelpcdn.com/bphoto/2hkTOJOVIub_st2OEOvpig/90s.jpg", "title": "Lala\u2019s Argentine Grill", "lon": -118.347297, "hours": "11:00 am - 11:00 pm", "lat": 34.083643}, {"category": "Restaurants", "city": "Los Angeles, CA", "addr": "2713 S Robertson Blvd Los Angeles, CA 90034", "rating": "4.5", "imageurl": "https://s3-media4.fl.yelpcdn.com/bphoto/Mq8gatSEslRHM6HZMBZlog/90s.jpg", "title": "Undergrind Cafe", "lon": -118.388925, "hours": "7:00 am - 5:00 pm", "lat": 34.0373425}, {"category": "Restaurants", "city": "Los Angeles, CA", "addr": "301 S Western Ave Ste 209 Los Angeles, CA 90020", "rating": "4.0", "imageurl": "https://s3-media2.fl.yelpcdn.com/bphoto/w_lusgmEavIWWoCfANG29w/90s.jpg", "title": "Hae Ha Heng Thai Bistro", "lon": -118.3095226, "hours": "11:00 am - 10:00 pm", "lat": 34.0686005}, {"category": "Restaurants", "city": "Los Angeles, CA", "addr": "705 W 9th St Los Angeles, CA 90015", "rating": "4.0", "imageurl": "https://s3-media1.fl.yelpcdn.com/bphoto/B8r21qBe6Np-EWcGFncgmw/90s.jpg", "title": "Faith & Flower", "lon": -118.2617745, "hours": "11:30 am - 2:30 pm\n5:00 pm - 10:00 pm", "lat": 34.0460271}, {"category": "Restaurants", "city": "Los Angeles, CA", "addr": "2123 Sawtelle Blvd Los Angeles, CA 90025", "rating": "4.0", "imageurl": "https://s3-media4.fl.yelpcdn.com/bphoto/B9jeuREVz5pXb6OtBqr9RQ/90s.jpg", "title": "Tatsu Ramen", "lon": -118.442340393371, "hours": "11:00 am - 2:00 am", "lat": 34.0389276051363}, {"category": "Restaurants", "city": "Los Angeles, CA", "addr": "3850 S Figueroa St Los Angeles, CA 90037", "rating": "4.5", "imageurl": "https://s3-media2.fl.yelpcdn.com/bphoto/eyX7Qn0-unMQE0vPGCv8WA/90s.jpg", "title": "Figueroa Philly", "lon": -118.282417, "hours": "10:00 am - 8:00 pm", "lat": 34.014196}, {"category": "Restaurants", "city": "Los Angeles, CA", "addr": "8000 W Sunset Blvd Los Angeles, CA 90046", "rating": "4.5", "imageurl": "https://s3-media3.fl.yelpcdn.com/bphoto/FqIqdMHwLhsPhH1bDTPAmQ/90s.jpg", "title": "Veggie Grill", "lon": -118.365265698114, "hours": "11:00 am - 10:30 pm", "lat": 34.0975154567746}, {"category": "Restaurants", "city": "Los Angeles, CA", "addr": "1300 N Highland Ave Los Angeles, CA 90028", "rating": "4.0", "imageurl": "https://s3-media4.fl.yelpcdn.com/bphoto/gnMvtYsRGlO-8ptdkyslHg/90s.jpg", "title": "Fat Sal\u2019s", "lon": -118.338174904238, "hours": "11:00 am - 3:00 am", "lat": 34.0945448886537}, {"category": "Restaurants", "city": "Los Angeles, CA", "addr": "6919 Melrose Ave Los Angeles, CA 90038", "rating": "4.0", "imageurl": "https://s3-media2.fl.yelpcdn.com/bphoto/wB_CaNfuAtllzJk6r25qCQ/90s.jpg", "title": "Franco on Melrose", "lon": -118.342346191406, "hours": "6:00 pm - 10:00 pm", "lat": 34.0836715698242}, {"category": "Restaurants", "city": "Los Angeles, CA", "addr": "403 N Larchmont Blvd Los Angeles, CA 90004", "rating": "4.0", "imageurl": "https://s3-media1.fl.yelpcdn.com/bphoto/b9bc0mLKPZESedy8KGdkfA/90s.jpg", "title": "Bricks & Scones", "lon": -118.3240547, "hours": "7:30 am - 8:00 pm", "lat": 34.0776929}, {"category": "Restaurants", "city": "Los Angeles, CA", "addr": "126 E 6th St Los Angeles, CA 90013", "rating": "4.0", "imageurl": "https://s3-media3.fl.yelpcdn.com/bphoto/WUi8dh3-ZIhVSk-dt7rK0Q/90s.jpg", "title": "The Black Sheep", "lon": -118.249443054199, "hours": "6:00 pm - 12:00 am", "lat": 34.0447654724121}, {"category": "Restaurants", "city": "Los Angeles, CA", "addr": "901 S La Brea Ave Ste 2 Los Angeles, CA 90036", "rating": "4.5", "imageurl": "https://s3-media4.fl.yelpcdn.com/bphoto/vioskQ2_F4tTzGU-_hhlnw/90s.jpg", "title": "Mo Better Burgers", "lon": -118.3458595, "hours": "12:00 pm - 8:00 pm", "lat": 34.0586758}, {"category": "Restaurants", "city": "Los Angeles, CA", "addr": "11301 W Olympic Blvd Ste 124 Los Angeles, CA 90064", "rating": "4.5", "imageurl": "https://s3-media3.fl.yelpcdn.com/bphoto/BIN9bVixP90E7FPAaVlFUQ/90s.jpg", "title": "Balconi Coffee Company", "lon": -118.441738808219, "hours": "7:00 am - 10:00 pm", "lat": 34.0380911892207}, {"category": "Restaurants", "city": "Los Angeles, CA", "addr": "429 W 8th St Los Angeles, CA 90014", "rating": "4.0", "imageurl": "https://s3-media3.fl.yelpcdn.com/bphoto/WwYBSU0WY8TPeEsW_p2qXw/90s.jpg", "title": "Colori Kitchen", "lon": -118.256441, "hours": "11:30 am - 2:30 pm", "lat": 34.045014}, {"category": "Restaurants", "city": "Los Angeles, CA", "addr": "541 S Spring St Ste 104 Spring Arcade Building Los Angeles, CA 90013", "rating": "4.5", "imageurl": "https://s3-media1.fl.yelpcdn.com/bphoto/K4rk6pnEFO8ojDz1CtXXLg/90s.jpg", "title": "Gelateria Uli", "lon": -118.250713186508, "hours": "12:00 pm - 10:00 pm", "lat": 34.0466413015739}, {"category": "Restaurants", "city": "Los Angeles, CA", "addr": "6332 W 3rd St Los Angeles, CA 90036", "rating": "4.0", "imageurl": "https://s3-media3.fl.yelpcdn.com/bphoto/d40d_0b3HkZm3G1Ill7UMw/90s.jpg", "title": "Andre\u2019s Italian Restaurant", "lon": -118.3603426, "hours": "11:00 am - 8:30 pm", "lat": 34.0705108}, {"category": "Restaurants", "city": "Los Angeles, CA", "addr": "347 E 2nd St Los Angeles, CA 90012", "rating": "4.0", "imageurl": "https://s3-media3.fl.yelpcdn.com/bphoto/vxt8EWDpgNuws9ngw666nw/90s.jpg", "title": "Hama Sushi", "lon": -118.2404411, "hours": "12:00 pm - 2:00 pm\n5:30 pm - 10:00 pm", "lat": 34.0485518}, {"category": "Restaurants", "city": "Los Angeles, CA", "addr": "4730 Crystal Springs Dr Los Angeles, CA 90027", "rating": "4.5", "imageurl": "https://s3-media2.fl.yelpcdn.com/bphoto/BD3RsbRTdgEVaZteV-9--g/90s.jpg", "title": "Griffith Park", "lon": -118.2861657, "hours": "5:00 am - 10:30 pm", "lat": 34.1425659}, {"category": "Restaurants", "city": "Los Angeles, CA", "addr": "3385 W 8th St Los Angeles, CA 90005", "rating": "4.0", "imageurl": "https://s3-media2.fl.yelpcdn.com/bphoto/-R-UdS_u--iiKv6U_vH7jg/90s.jpg", "title": "Oo-Kook Korean BBQ", "lon": -118.3028374, "hours": "11:00 am - 12:00 am", "lat": 34.0580071}, {"category": "Restaurants", "city": "Los Angeles, CA", "addr": "6333 W 3rd St Ste 618 Los Angeles, CA 90036", "rating": "4.0", "imageurl": "https://s3-media3.fl.yelpcdn.com/bphoto/6U1OLGyq6b3XrPtCznxzkQ/90s.jpg", "title": "Pampas Grill", "lon": -118.360551042328, "hours": "10:30 am - 9:00 pm", "lat": 34.072166900233}, {"category": "Restaurants", "city": "Los Angeles, CA", "addr": "371 E 2nd St Los Angeles, CA 90012", "rating": "4.0", "imageurl": "https://s3-media3.fl.yelpcdn.com/bphoto/VwVhaV3VGHmT5PMCUumK5g/90s.jpg", "title": "Spitz - Little Tokyo", "lon": -118.2398789, "hours": "11:00 am - 11:00 pm", "lat": 34.0482095}, {"category": "Restaurants", "city": "Los Angeles, CA", "addr": "127 Japanese Village Plaza Mall Los Angeles, CA 90012", "rating": "4.0", "imageurl": "https://s3-media3.fl.yelpcdn.com/bphoto/jf2UW1idnzyNBAsCrd_Djg/90s.jpg", "title": "Shabu Shabu House", "lon": -118.240384097623, "hours": "12:00 pm - 2:00 pm\n5:30 pm - 9:00 pm", "lat": 34.0489331738058}, {"category": "Restaurants", "city": "Los Angeles, CA", "addr": "4749 Fountain Ave Los Angeles, CA 90029", "rating": "4.0", "imageurl": "https://s3-media4.fl.yelpcdn.com/bphoto/FwRAnZXjCYIQdql5v_hgjw/90s.jpg", "title": "LA Rose Cafe", "lon": -118.2926529, "hours": "8:00 am - 8:30 pm", "lat": 34.0956874}, {"category": "Restaurants", "city": "Los Angeles, CA", "addr": "3600 Wilshire Blvd Ste 100C Los Angeles, CA 90010", "rating": "4.0", "imageurl": "https://s3-media3.fl.yelpcdn.com/bphoto/_3PYrHCFae5UU_izHb7UrA/90s.jpg", "title": "Bulgogi Hut", "lon": -118.303241833066, "hours": "11:00 am - 12:00 am", "lat": 34.0615866318416}, {"category": "Restaurants", "city": "Los Angeles, CA", "addr": "819 N Broadway Los Angeles, CA 90012", "rating": "4.0", "imageurl": "https://s3-media1.fl.yelpcdn.com/bphoto/2nFPvKAOOa_2w91phRvgoQ/90s.jpg", "title": "Yang Chow", "lon": -118.238283, "hours": "11:30 am - 9:30 pm", "lat": 34.0629867}, {"category": "Restaurants", "city": "Los Angeles, CA", "addr": "10319 Venice Blvd Los Angeles, CA 90034", "rating": "4.0", "imageurl": "https://s3-media2.fl.yelpcdn.com/bphoto/ouXXyz23Y1ZefEAuwoqzEA/90s.jpg", "title": "Versailles Restaurant", "lon": -118.403606, "hours": "11:00 am - 10:00 pm", "lat": 34.021145}, {"category": "Restaurants", "city": "Los Angeles, CA", "addr": "720 N Virgil Ave Ste 4 Los Angeles, CA 90029", "rating": "4.0", "imageurl": "https://s3-media2.fl.yelpcdn.com/bphoto/4wWZ2BiQPsx9mBcvm9l_9Q/90s.jpg", "title": "Sqirl", "lon": -118.286691606045, "hours": "6:30 am - 4:00 pm", "lat": 34.0843519908378}, {"category": "Restaurants", "city": "Los Angeles, CA", "addr": "4854 Fountain Ave Los Angeles, CA 90029", "rating": "4.0", "imageurl": "https://s3-media4.fl.yelpcdn.com/bphoto/tNyMVxD4orVtmpWTmc0E8Q/90s.jpg", "title": "Square One Dining", "lon": -118.2949997, "hours": "8:30 am - 3:00 pm", "lat": 34.0952833}, {"category": "Restaurants", "city": "Los Angeles, CA", "addr": "3575 Wilshire Blvd Los Angeles, CA 90010", "rating": "3.5", "imageurl": "https://s3-media3.fl.yelpcdn.com/bphoto/u5QuZXZkHUo4T5evE79L7w/90s.jpg", "title": "BCD Tofu House", "lon": -118.302658449143, "hours": "Open 24 hours", "lat": 34.0620862485445}, {"category": "Restaurants", "city": "Los Angeles, CA", "addr": "4501 Fountain Ave Los Angeles, CA 90029", "rating": "4.5", "imageurl": "https://s3-media3.fl.yelpcdn.com/bphoto/h9pLZE7ohbMbtRST9CsKkQ/90s.jpg", "title": "Boo\u2019s Philly Cheesesteaks - Silverlake", "lon": -118.287102, "hours": "11:00 am - 10:00 pm", "lat": 34.095845}, {"category": "Restaurants", "city": "Los Angeles, CA", "addr": "2575 Beverly Blvd Los Angeles, CA 90057", "rating": "4.0", "imageurl": "https://s3-media1.fl.yelpcdn.com/bphoto/tQGc11_MAVaZoDMRRa23Dg/90s.jpg", "title": "Tommy\u2019s Original World Famous Hamburgers", "lon": -118.276321, "hours": "Open 24 hours", "lat": 34.069511}, {"category": "Restaurants", "city": "Los Angeles, CA", "addr": "108 W 2nd St Ste 104 Los Angeles, CA 90012", "rating": "4.0", "imageurl": "https://s3-media4.fl.yelpcdn.com/bphoto/hWJi8weWMT27-Q2R3MrjYA/90s.jpg", "title": "Badmaash", "lon": -118.244926282244, "hours": "11:30 am - 3:00 pm\n5:30 pm - 10:00 pm", "lat": 34.0509979640131}, {"category": "Restaurants", "city": "Los Angeles, CA", "addr": "5183 Hollywood Blvd Los Angeles, CA 90027", "rating": "4.5", "imageurl": "https://s3-media2.fl.yelpcdn.com/bphoto/jt_DFatCdJCdfmM2Eqo7zA/90s.jpg", "title": "Sapp Coffee Shop", "lon": -118.3031667, "hours": "7:00 am - 8:00 pm", "lat": 34.1020837}, {"category": "Restaurants", "city": "Los Angeles, CA", "addr": "Grand Central Market Space A-5 317 S Broadway Los Angeles, CA 90013", "rating": "4.5", "imageurl": "https://s3-media4.fl.yelpcdn.com/bphoto/qlXbCxUFowPl-fU9Oe8qqQ/90s.jpg", "title": "Tacos Tumbras a Tomas", "lon": -118.249036073685, "hours": "9:00 am - 6:00 pm", "lat": 34.0507793579027}, {"category": "Restaurants", "city": "Los Angeles, CA", "addr": "10801 W Pico Blvd Los Angeles, CA 90064", "rating": "3.5", "imageurl": "https://s3-media1.fl.yelpcdn.com/bphoto/JFT0xCkPjUXdWtfKAMt7AA/90s.jpg", "title": "The Apple Pan", "lon": -118.4278502, "hours": "11:00 am - 12:00 am", "lat": 34.0406896}, {"category": "Restaurants", "city": "Los Angeles, CA", "addr": "3303 W 6th St Los Angeles, CA 90020", "rating": "4.0", "imageurl": "https://s3-media1.fl.yelpcdn.com/bphoto/LAiu8-4rvo9Usw3IygqdEg/90s.jpg", "title": "Seongbukdong", "lon": -118.2943547, "hours": "9:00 am - 12:00 am", "lat": 34.0640129}, {"category": "Restaurants", "city": "Los Angeles, CA", "addr": "107 W 9th St Los Angeles, CA 90015", "rating": "4.0", "imageurl": "https://s3-media1.fl.yelpcdn.com/bphoto/LJDHg-tYcG3JaYewf3PUkg/90s.jpg", "title": "Wood Spoon", "lon": -118.255135191069, "hours": "11:00 am - 3:00 pm\n5:00 pm - 10:00 pm", "lat": 34.0419174907936}, {"category": "Restaurants", "city": "Los Angeles, CA", "addr": "529 S Central Ave Los Angeles, CA 90013", "rating": "4.0", "imageurl": "https://s3-media1.fl.yelpcdn.com/bphoto/t_EM5YoVYRwO5jRKGCwNUw/90s.jpg", "title": "Fisherman\u2019s Outlet", "lon": -118.2401771, "hours": "10:00 am - 3:30 pm", "lat": 34.0408543}, {"category": "Restaurants", "city": "Los Angeles, CA", "addr": "116 Judge John Aiso St Los Angeles, CA 90012", "rating": "4.0", "imageurl": "https://s3-media1.fl.yelpcdn.com/bphoto/uxIHtuMKs1RPXCdsH4WvAw/90s.jpg", "title": "JiST Cafe", "lon": -118.2403506, "hours": "7:00 am - 2:00 pm", "lat": 34.0507562}, {"category": "Restaurants", "city": "Los Angeles, CA", "addr": "314 W Olympic Blvd Los Angeles, CA 90015", "rating": "4.0", "imageurl": "https://s3-media4.fl.yelpcdn.com/bphoto/yHGbTg3jrZJhxEbx0B2g8Q/90s.jpg", "title": "Birdies", "lon": -118.259046916196, "hours": "7:00 am - 9:30 pm", "lat": 34.041836309712}, {"category": "Restaurants", "city": "Los Angeles, CA", "addr": "2005 Sawtelle Blvd Los Angeles, CA 90025", "rating": "4.0", "imageurl": "https://s3-media1.fl.yelpcdn.com/bphoto/UW9uuWchDnoiiZ5MAbafmQ/90s.jpg", "title": "B Sweet Dessert Bar", "lon": -118.443594703041, "hours": "12:00 pm - 11:00 pm", "lat": 34.0406502357722}, {"category": "Restaurants", "city": "Los Angeles, CA", "addr": "610 S Serrano Ave Los Angeles, CA 90005", "rating": "4.0", "imageurl": "https://s3-media1.fl.yelpcdn.com/bphoto/H236xgHGlAnrx3_Qm0HUVw/90s.jpg", "title": "Concerto", "lon": -118.306221, "hours": "10:00 am - 12:00 am", "lat": 34.063015}, {"category": "Restaurants", "city": "Los Angeles, CA", "addr": "974 S Western Ave Los Angeles, CA 90006", "rating": "4.5", "imageurl": "https://s3-media3.fl.yelpcdn.com/bphoto/qREhJp8d9J5y5Mj3eDk1lw/90s.jpg", "title": "Ktown Pho", "lon": -118.3088431, "hours": "11:00 am - 9:00 pm", "lat": 34.053374}, {"category": "Restaurants", "city": "Los Angeles, CA", "addr": "1040 S Western Ave Los Angeles, CA 90006", "rating": "4.5", "imageurl": "https://s3-media4.fl.yelpcdn.com/bphoto/JCUQqozwGeELKAp2l-lN0A/90s.jpg", "title": "Ssam Korean BBQ", "lon": -118.308692932129, "hours": "11:00 am - 11:30 pm", "lat": 34.0513648986816}, {"category": "Restaurants", "city": "Los Angeles, CA", "addr": "3809 W Pico Blvd Los Angeles, CA 90019", "rating": "4.0", "imageurl": "https://s3-media4.fl.yelpcdn.com/bphoto/O1adBoIX5v7DthLMKe4QWA/90s.jpg", "title": "La Cevicheria", "lon": -118.3228141, "hours": "11:00 am - 8:00 pm", "lat": 34.0476537}, {"category": "Restaurants", "city": "Los Angeles, CA", "addr": "1727 N Vermont Ave Ste 102 Los Angeles, CA 90027", "rating": "4.5", "imageurl": "https://s3-media2.fl.yelpcdn.com/bphoto/vqgcfE-mNDm694TkMQU9sg/90s.jpg", "title": "Sidewalk Grill", "lon": -118.291943635377, "hours": "11:00 am - 10:00 pm", "lat": 34.1026289157429}, {"category": "Restaurants", "city": "Los Angeles, CA", "addr": "1019 N Broadway Los Angeles, CA 90012", "rating": "4.0", "imageurl": "https://s3-media2.fl.yelpcdn.com/bphoto/5BP1Hc8sWzyNpM3PB83d5A/90s.jpg", "title": "Pho 87", "lon": -118.2358046, "hours": "10:00 am - 9:00 pm", "lat": 34.0673101}, {"category": "Restaurants", "city": "Los Angeles, CA", "addr": "7916 W Sunset Blvd Hollywood, CA 90046", "rating": "4.0", "imageurl": "https://s3-media3.fl.yelpcdn.com/bphoto/G6BwK7O8o2tk2RoBnkUT5g/90s.jpg", "title": "The Griddle Cafe", "lon": -118.362244034837, "hours": "7:00 am - 4:00 pm", "lat": 34.097916238579}, {"category": "Restaurants", "city": "Los Angeles, CA", "addr": "3040 E Olympic Blvd Los Angeles, CA 90023", "rating": "4.5", "imageurl": "https://s3-media4.fl.yelpcdn.com/bphoto/njWoej6FqV-mLE2R8fTIZg/90s.jpg", "title": "Mariscos Jalisco", "lon": -118.21276, "hours": "9:00 am - 6:00 pm", "lat": 34.021171}, {"category": "Restaurants", "city": "Los Angeles, CA", "addr": "10227 Venice Blvd Los Angeles, CA 90034", "rating": "4.0", "imageurl": "https://s3-media4.fl.yelpcdn.com/bphoto/_jOrrbCem3HftyA7mRcFCw/90s.jpg", "title": "Gloria\u2019s Cafe", "lon": -118.4027208, "hours": "11:00 am - 10:00 pm", "lat": 34.0215538}, {"category": "Restaurants", "city": "Los Angeles, CA", "addr": "109 N Fairfax Ave Los Angeles, CA 90036", "rating": "4.5", "imageurl": "https://s3-media3.fl.yelpcdn.com/bphoto/ZR8zCXubVjeTrdoey-g2cA/90s.jpg", "title": "Kaya Street Kitchen", "lon": -118.3616851, "hours": "11:00 am - 10:00 pm", "lat": 34.0746827}, {"category": "Restaurants", "city": "Los Angeles, CA", "addr": "735 S Figueroa St Los Angeles, CA 90071", "rating": "4.5", "imageurl": "https://s3-media4.fl.yelpcdn.com/bphoto/tp5eCKGn3PSZ3i68LY8AqA/90s.jpg", "title": "Mendocino Farms", "lon": -118.260798042992, "hours": "11:00 am - 9:00 pm", "lat": 34.049318846845}, {"category": "Restaurants", "city": "Los Angeles, CA", "addr": "10433 National Blvd Ste 2 Los Angeles, CA 90034", "rating": "4.0", "imageurl": "https://s3-media3.fl.yelpcdn.com/bphoto/iEwJZVDM_7Qau_HIXbX4Xw/90s.jpg", "title": "Simpang Asia", "lon": -118.411661, "hours": "11:00 am - 10:00 pm", "lat": 34.029081}, {"category": "Restaurants", "city": "Los Angeles, CA", "addr": "1623 1/2 N Cahuenga Blvd Los Angeles, CA 90028", "rating": "4.5", "imageurl": "https://s3-media2.fl.yelpcdn.com/bphoto/YeeDoRefSOPshiFxGGo95w/90s.jpg", "title": "Hotel Caf\u00e9", "lon": -118.32970364318, "hours": "N/A - N/A", "lat": 34.100444372802}, {"category": "Restaurants", "city": "Los Angeles, CA", "addr": "11707 Washington Pl Los Angeles, CA 90066", "rating": "4.0", "imageurl": "https://s3-media3.fl.yelpcdn.com/bphoto/1Fp1D2ZjmFOAxTCjESuuQA/90s.jpg", "title": "Rutt\u2019s Hawaiian Cafe", "lon": -118.421607055397, "hours": "6:30 am - 8:30 pm", "lat": 34.0044256926496}, {"category": "Restaurants", "city": "Los Angeles, CA", "addr": "1436 W Jefferson Blvd Ste 70 Los Angeles, CA 90007", "rating": "4.5", "imageurl": "https://s3-media3.fl.yelpcdn.com/bphoto/veDTMpjLuEClBqXMxJFw-g/90s.jpg", "title": "Revolutionario: North African Tacos", "lon": -118.2985774, "hours": "11:00 am - 9:00 pm", "lat": 34.0253207}, {"category": "Restaurants", "city": "Los Angeles, CA", "addr": "5732 Melrose Ave Los Angeles, CA 90038", "rating": "4.0", "imageurl": "https://s3-media4.fl.yelpcdn.com/bphoto/_wg77w3MYQV1UhV8oRJcHw/90s.jpg", "title": "Osteria Mamma", "lon": -118.324724939274, "hours": "11:30 am - 10:30 pm", "lat": 34.0833586783984}, {"category": "Restaurants", "city": "Los Angeles, CA", "addr": "7910 W 3rd St Los Angeles, CA 90048", "rating": "4.0", "imageurl": "https://s3-media4.fl.yelpcdn.com/bphoto/iJN9HASCz2hJ9TWzEpP6ZA/90s.jpg", "title": "Mercado Los Angeles", "lon": -118.3621514, "hours": "5:00 pm - 10:00 pm", "lat": 34.0713275}, {"category": "Restaurants", "city": "Los Angeles, CA", "addr": "7013 Melrose Ave Los Angeles, CA 90038", "rating": "4.0", "imageurl": "https://s3-media3.fl.yelpcdn.com/bphoto/JGpn1z59W97ROGI7s-4f8A/90s.jpg", "title": "Anarkali Indian Restaurant", "lon": -118.3432718, "hours": "11:00 am - 11:00 pm", "lat": 34.0835565}, {"category": "Restaurants", "city": "Los Angeles, CA", "addr": "529 W 6th St Los Angeles, CA 90014", "rating": "4.5", "imageurl": "https://s3-media1.fl.yelpcdn.com/bphoto/yzFhE60BJkg5i3bis6A1Pg/90s.jpg", "title": "Crepe X-press Cafe", "lon": -118.2549527, "hours": "7:30 am - 3:30 pm", "lat": 34.0487931}, {"category": "Restaurants", "city": "Los Angeles, CA", "addr": "4222 W Pico Blvd Los Angeles, CA 90019", "rating": "4.5", "imageurl": "https://s3-media3.fl.yelpcdn.com/bphoto/6mKqgAOOVdDjr1qM1N2RRg/90s.jpg", "title": "The Grain Cafe", "lon": -118.3277144, "hours": "6:00 am - 10:00 pm", "lat": 34.0474761}, {"category": "Restaurants", "city": "Los Angeles, CA", "addr": "189 The Grove Dr Ste Z80 Los Angeles, CA 90036", "rating": "4.0", "imageurl": "https://s3-media3.fl.yelpcdn.com/bphoto/1x_18-QlBsleOo5QfX35NQ/90s.jpg", "title": "Maggiano\u2019s Little Italy", "lon": -118.359532366503, "hours": "11:30 am - 10:00 pm", "lat": 34.0735357290438}, {"category": "Restaurants", "city": "Los Angeles, CA", "addr": "135 S San Pedro St Los Angeles, CA 90012", "rating": "4.0", "imageurl": "https://s3-media1.fl.yelpcdn.com/bphoto/wXnqCU0_b4BEi1g9Hgp-_A/90s.jpg", "title": "Demitasse", "lon": -118.241869211197, "hours": "7:00 am - 7:00 pm", "lat": 34.0496726343766}, {"category": "Restaurants", "city": "Los Angeles, CA", "addr": "2040 Sawtelle Blvd Los Angeles, CA 90025", "rating": "4.0", "imageurl": "https://s3-media2.fl.yelpcdn.com/bphoto/HPGXH0JN7sq5ZIjundfLCQ/90s.jpg", "title": "Hide Sushi Japanese Restaurant", "lon": -118.442672, "hours": "11:30 am - 9:00 pm", "lat": 34.040285}, {"category": "Restaurants", "city": "Los Angeles, CA", "addr": "580 Mateo St Los Angeles, CA 90013", "rating": "4.0", "imageurl": "https://s3-media1.fl.yelpcdn.com/bphoto/4dfCfxV3e3OCNvtGBzsMhw/90s.jpg", "title": "Zinc Cafe & Market", "lon": -118.232504, "hours": "8:00 am - 10:00 pm", "lat": 34.039413}, {"category": "Restaurants", "city": "Los Angeles, CA", "addr": "8101 Beverly Blvd Los Angeles, CA 90048", "rating": "4.5", "imageurl": "https://s3-media4.fl.yelpcdn.com/bphoto/oQv5P9feQqYm9RgibFSZkA/90s.jpg", "title": "Araya\u2019s Place - Thai Vegan Restaurant", "lon": -118.3659884, "hours": "11:30 am - 9:00 pm", "lat": 34.0763201}, {"category": "Restaurants", "city": "Los Angeles, CA", "addr": "333 S Alameda St Ste 317 Los Angeles, CA 90013", "rating": "4.0", "imageurl": "https://s3-media4.fl.yelpcdn.com/bphoto/HPiNaZ1_qH7oMzJRF1Wwcg/90s.jpg", "title": "Sushi Go 55", "lon": -118.238458433205, "hours": "11:15 am - 2:15 pm\n5:30 pm - 10:00 pm", "lat": 34.0452948811294}, {"category": "Restaurants", "city": "Los Angeles, CA", "addr": "6547 Santa Monica Blvd Los Angeles, CA 90038", "rating": "4.5", "imageurl": "https://s3-media3.fl.yelpcdn.com/bphoto/uPzfEJAGW9KqzwGlOmVE6A/90s.jpg", "title": "Eat This Cafe", "lon": -118.3323209, "hours": "10:00 am - 8:00 pm", "lat": 34.090825}, {"category": "Restaurants", "city": "Los Angeles, CA", "addr": "806 S Santa Fe Ave Los Angeles, CA 90021", "rating": "4.5", "imageurl": "https://s3-media4.fl.yelpcdn.com/bphoto/3-EYMN-DMu02FkPzeMCQ1w/90s.jpg", "title": "Stumptown Coffee Roasters", "lon": -118.229849855231, "hours": "6:30 am - 7:00 pm", "lat": 34.033444027638}, {"category": "Restaurants", "city": "Los Angeles, CA", "addr": "3744 W 6th St Los Angeles, CA 90005", "rating": "4.0", "imageurl": "https://s3-media1.fl.yelpcdn.com/bphoto/UEi0GRWnqcxA7ZAKAWJ7oA/90s.jpg", "title": "Ahgassi Gopchang", "lon": -118.30388175744, "hours": "11:00 am - 2:00 am", "lat": 34.0634067908259}, {"category": "Restaurants", "city": "Los Angeles, CA", "addr": "8284 Melrose Ave Los Angeles, CA 90046", "rating": "4.0", "imageurl": "https://s3-media4.fl.yelpcdn.com/bphoto/i2mXbAP5buayWQX6xAdZXQ/90s.jpg", "title": "Crossroads", "lon": -118.370118, "hours": "11:00 am - 2:30 pm\n5:00 pm - 11:00 pm", "lat": 34.083422}, {"category": "Restaurants", "city": "Los Angeles, CA", "addr": "2366 Glendale Blvd Los Angeles, CA 90039", "rating": "4.0", "imageurl": "https://s3-media4.fl.yelpcdn.com/bphoto/biYZnoNRAcNnSatG8LHuaw/90s.jpg", "title": "Red Lion Tavern", "lon": -118.2589245, "hours": "11:00 am - 2:00 am", "lat": 34.0992074}, {"category": "Restaurants", "city": "Los Angeles, CA", "addr": "877 S Figueroa St Los Angeles, CA 90017", "rating": "3.5", "imageurl": "https://s3-media2.fl.yelpcdn.com/bphoto/TzVWIZEyoBBc9G-ZNeEEBQ/90s.jpg", "title": "Original Pantry Cafe", "lon": -118.262845804944, "hours": "Open 24 hours", "lat": 34.0464117322053}, {"category": "Restaurants", "city": "Los Angeles, CA", "addr": "418 E 2nd St Los Angeles, CA 90012", "rating": "4.5", "imageurl": "https://s3-media1.fl.yelpcdn.com/bphoto/V40dUoboZEoOHROQu8dZ8w/90s.jpg", "title": "KaGaYa", "lon": -118.2386388, "hours": "6:00 pm - 10:30 pm", "lat": 34.0471121}, {"category": "Restaurants", "city": "Los Angeles, CA", "addr": "10250 Santa Monica Blvd Ste 654 Los Angeles, CA 90067", "rating": "4.0", "imageurl": "https://s3-media3.fl.yelpcdn.com/bphoto/eSo0EKpp_a8e_OV4oX46Zw/90s.jpg", "title": "RockSugar Southeast Asian Kitchen", "lon": -118.420109087905, "hours": "11:30 am - 10:00 pm", "lat": 34.0595543956397}, {"category": "Restaurants", "city": "Los Angeles, CA", "addr": "4430 Beverly Blvd Los Angeles, CA 90004", "rating": "4.0", "imageurl": "https://s3-media4.fl.yelpcdn.com/bphoto/ZLCsfe2C2U3R3Vt41e2pSg/90s.jpg", "title": "Noshi Sushi", "lon": -118.305407725275, "hours": "11:30 am - 9:00 pm", "lat": 34.0761600290924}, {"category": "Restaurants", "city": "Los Angeles, CA", "addr": "118 E 6th St Los Angeles, CA 90014", "rating": "3.5", "imageurl": "https://s3-media1.fl.yelpcdn.com/bphoto/2UiTD9f63mIEqSF0C_CgnQ/90s.jpg", "title": "Cole\u2019s French Dip", "lon": -118.249564, "hours": "12:00 pm - 2:00 am", "lat": 34.044846}, {"category": "Restaurants", "city": "Los Angeles, CA", "addr": "118 E 6th St Los Angeles, CA 90014", "rating": "4.0", "imageurl": "https://s3-media3.fl.yelpcdn.com/bphoto/6sCvJAI-PikFlwOZ37ye4Q/90s.jpg", "title": "The Varnish", "lon": -118.24979702707, "hours": "7:00 pm - 2:00 am", "lat": 34.044893158169}, {"category": "Restaurants", "city": "Los Angeles, CA", "addr": "519 N Fairfax Ave Los Angeles, CA 90036", "rating": "4.5", "imageurl": "https://s3-media4.fl.yelpcdn.com/bphoto/Ta1ADdZGPtzmMhchuUDPGw/90s.jpg", "title": "Pita Bar & Grill", "lon": -118.3614732, "hours": "11:00 am - 11:00 pm", "lat": 34.0806379}, {"category": "Restaurants", "city": "Los Angeles, CA", "addr": "4470 W Sunset Blvd Ste 480 Los Angeles, CA 90027", "rating": "4.0", "imageurl": "https://s3-media3.fl.yelpcdn.com/bphoto/mKh9q7d3uDQpN9sn3PSWfQ/90s.jpg", "title": "The Lobos Truck", "lon": -118.287052, "hours": "11:00 am - 9:00 pm", "lat": 34.097999}, {"category": "Restaurants", "city": "Los Angeles, CA", "addr": "8050 West 3rd St Los Angeles, CA 90048", "rating": "4.0", "imageurl": "https://s3-media1.fl.yelpcdn.com/bphoto/dBe8ZWDA87Y_1cxvt08FkQ/90s.jpg", "title": "Robata JINYA", "lon": -118.3655406, "hours": "5:00 pm - 10:30 pm", "lat": 34.0718708}, {"category": "Restaurants", "city": "Los Angeles, CA", "addr": "3460 W 8th St Los Angeles, CA 90005", "rating": "4.5", "imageurl": "https://s3-media4.fl.yelpcdn.com/bphoto/TM54bTb89LGoRCAWMi0Zng/90s.jpg", "title": "Magal BBQ", "lon": -118.305579846558, "hours": "11:00 am - 12:00 am", "lat": 34.0575211060056}, {"category": "Restaurants", "city": "Los Angeles, CA", "addr": "1300 Factory Pl Ste 101 Los Angeles, CA 90013", "rating": "4.0", "imageurl": "https://s3-media2.fl.yelpcdn.com/bphoto/Y2X33yHcXXtLuzkHJ2H2CA/90s.jpg", "title": "The Factory Kitchen", "lon": -118.23602, "hours": "11:30 am - 2:30 pm\n5:30 pm - 10:00 pm", "lat": 34.038867}, {"category": "Restaurants", "city": "Los Angeles, CA", "addr": "7000 Hollywood Blvd Hollywood Roosevelt Hotel Los Angeles, CA 90028", "rating": "3.5", "imageurl": "https://s3-media1.fl.yelpcdn.com/bphoto/ZpYrrMK8fj3OdZxo9nqM0Q/90s.jpg", "title": "25 Degrees", "lon": -118.341748, "hours": "Open 24 hours", "lat": 34.101411}, {"category": "Restaurants", "city": "Los Angeles, CA", "addr": "6523 Sunset Blvd Los Angeles, CA 90028", "rating": "4.0", "imageurl": "https://s3-media4.fl.yelpcdn.com/bphoto/KcKB7kXL271pCCYvHxcBKw/90s.jpg", "title": "Boulevard3", "lon": -118.33177, "hours": "10:00 pm - 2:00 am", "lat": 34.098142}, {"category": "Restaurants", "city": "Los Angeles, CA", "addr": "5671 W Pico Blvd Los Angeles, CA 90019", "rating": "4.5", "imageurl": "https://s3-media1.fl.yelpcdn.com/bphoto/QlY8XgaZPQKQwJk7m2TcGw/90s.jpg", "title": "Powerplant Superfood Cafe", "lon": -118.361676, "hours": "9:00 am - 7:00 pm", "lat": 34.050409}, {"category": "Restaurants", "city": "Los Angeles, CA", "addr": "970 N Western Ave Los Angeles, CA 90029", "rating": "4.5", "imageurl": "https://s3-media3.fl.yelpcdn.com/bphoto/EvIUvFbJhAoU4zyrSY2ycA/90s.jpg", "title": "Dave\u2019s Hot Chicken", "lon": -118.308962, "hours": "6:00 pm - 11:45 pm", "lat": 34.0880681}, {"category": "Restaurants", "city": "Los Angeles, CA", "addr": "1253 Vine St Ste 9 Los Angeles, CA 90038", "rating": "4.0", "imageurl": "https://s3-media2.fl.yelpcdn.com/bphoto/x1_UlWQjuD_gws6aR5gr_w/90s.jpg", "title": "Doomie\u2019s Home Cookin\u2019", "lon": -118.327639, "hours": "12:00 pm - 12:00 am", "lat": 34.093984}, {"category": "Restaurants", "city": "Los Angeles, CA", "addr": "4204 W 3rd St Los Angeles, CA 90020", "rating": "4.5", "imageurl": "https://s3-media1.fl.yelpcdn.com/bphoto/To87KYy6xEdh2M58JfDpOw/90s.jpg", "title": "Buil Samgye Tang", "lon": -118.3057285, "hours": "11:30 am - 9:30 pm", "lat": 34.0687785}, {"category": "Restaurants", "city": "Los Angeles, CA", "addr": "630 W 6th St Ste 116-A Los Angeles, CA 90017", "rating": "4.0", "imageurl": "https://s3-media1.fl.yelpcdn.com/bphoto/NRYWqxg83g_IAQcPTX_DYQ/90s.jpg", "title": "Library Bar", "lon": -118.256755477119, "hours": "3:00 pm - 2:00 am", "lat": 34.049497477234}, {"category": "Restaurants", "city": "Los Angeles, CA", "addr": "114 E 2nd St Los Angeles, CA 90012", "rating": "4.0", "imageurl": "https://s3-media1.fl.yelpcdn.com/bphoto/HsvQVXZtLTv0bOTKAhpSKA/90s.jpg", "title": "Redbird", "lon": -118.244063, "hours": "5:00 pm - 10:00 pm", "lat": 34.050496}, {"category": "Restaurants", "city": "Los Angeles, CA", "addr": "811 Wilshire Blvd Ste 2100 Los Angeles, CA 90017", "rating": "3.5", "imageurl": "https://s3-media2.fl.yelpcdn.com/bphoto/UU-8ARzFpbrkLXjdumA3GQ/90s.jpg", "title": "Takami Sushi & Robata Restaurant", "lon": -118.2582317, "hours": "11:30 am - 2:00 pm\n5:00 pm - 9:30 pm", "lat": 34.0497842}, {"category": "Restaurants", "city": "Los Angeles, CA", "addr": "131 N Larchmont Blvd Los Angeles, CA 90004", "rating": "4.0", "imageurl": "https://s3-media1.fl.yelpcdn.com/bphoto/kJy5Egepl02BQttpfvTTzA/90s.jpg", "title": "Village Pizzeria", "lon": -118.3238054, "hours": "11:30 am - 9:30 pm", "lat": 34.0739747}, {"category": "Restaurants", "city": "Los Angeles, CA", "addr": "1858 N Vermont Ave Los Angeles, CA 90027", "rating": "4.0", "imageurl": "https://s3-media1.fl.yelpcdn.com/bphoto/m1xgemC36RST9oQPS7hrvA/90s.jpg", "title": "Palermo Italian Restaurant", "lon": -118.2914757, "hours": "5:00 pm - 10:00 pm", "lat": 34.1048121}, {"category": "Restaurants", "city": "Los Angeles, CA", "addr": "7233 Beverly Blvd Los Angeles, CA 90036", "rating": "4.5", "imageurl": "https://s3-media1.fl.yelpcdn.com/bphoto/dIlOzcQ3Gscld3GbC_lcpQ/90s.jpg", "title": "Cardamom", "lon": -118.3470613, "hours": "11:00 am - 2:30 pm\n5:00 pm - 10:30 pm", "lat": 34.0764409}, {"category": "Restaurants", "city": "Los Angeles, CA", "addr": "3630 Wilshire Blvd Los Angeles, CA 90010", "rating": "4.0", "imageurl": "https://s3-media3.fl.yelpcdn.com/bphoto/NqVVyx0TC32n0opZ1Eh9yg/90s.jpg", "title": "Myung Dong Kyoja", "lon": -118.304317495701, "hours": "8:00 am - 10:00 pm", "lat": 34.0615549821861}, {"category": "Restaurants", "city": "Los Angeles, CA", "addr": "800 W Olympic Blvd Los Angeles, CA 90015", "rating": "4.0", "imageurl": "https://s3-media3.fl.yelpcdn.com/bphoto/B3qe9F_rayQxJOGvczTLtA/90s.jpg", "title": "Fleming\u2019s Prime Steakhouse & Wine Bar", "lon": -118.26536453203, "hours": "11:30 am - 10:00 pm", "lat": 34.0446963342719}, {"category": "Restaurants", "city": "Los Angeles, CA", "addr": "7300 Sunset Blvd Los Angeles, CA 90046", "rating": "4.5", "imageurl": "https://s3-media4.fl.yelpcdn.com/bphoto/yVJu3OPj2k0p3foRa1gGQA/90s.jpg", "title": "The Carving Board", "lon": -118.3500475, "hours": "11:00 am - 12:00 am", "lat": 34.0975371}, {"category": "Restaurants", "city": "Los Angeles, CA", "addr": "4449 Prospect Ave Los Angeles, CA 90027", "rating": "4.5", "imageurl": "https://s3-media4.fl.yelpcdn.com/bphoto/ZwSif9nse33EtoKU6zVgcw/90s.jpg", "title": "Cruzer Pizza", "lon": -118.286900938097, "hours": "11:00 am - 10:30 pm", "lat": 34.101988487468}, {"category": "Restaurants", "city": "Los Angeles, CA", "addr": "549 S Western Ave Los Angeles, CA 90020", "rating": "4.5", "imageurl": "https://s3-media1.fl.yelpcdn.com/bphoto/ap2HNcWWilZ0kP8FIwNoVw/90s.jpg", "title": "Ubatuba Acai - Koreatown", "lon": -118.309566825628, "hours": "9:00 am - 11:00 pm", "lat": 34.0638574002996}, {"category": "Restaurants", "city": "Los Angeles, CA", "addr": "11313 Mississippi Ave Los Angeles, CA 90025", "rating": "4.0", "imageurl": "https://s3-media4.fl.yelpcdn.com/bphoto/kycfwiAezjozsBS2_q7wbQ/90s.jpg", "title": "Korean Super", "lon": -118.4429987, "hours": "11:00 am - 9:00 pm", "lat": 34.0394395}, {"category": "Restaurants", "city": "Los Angeles, CA", "addr": "Los Angeles, CA", "rating": "3.5", "imageurl": "https://s3-media3.fl.yelpcdn.com/bphoto/ZkhX-NyfquVpBia39qHgpg/90s.jpg", "title": "Kogi BBQ Truck - Azul", "lon": -118.2436849, "hours": "6:00 pm - 12:00 am", "lat": 34.0522342}, {"category": "Restaurants", "city": "Los Angeles, CA", "addr": "222 S Hope St Los Angeles, CA 90012", "rating": "4.0", "imageurl": "https://s3-media4.fl.yelpcdn.com/bphoto/5yek7VF0i9VPRpXIwefLVg/90s.jpg", "title": "Otium", "lon": -118.251321111822, "hours": "11:30 am - 10:00 pm", "lat": 34.0544461038741}, {"category": "Restaurants", "city": "Los Angeles, CA", "addr": "3600 W 6th St Los Angeles, CA 90020", "rating": "4.0", "imageurl": "https://s3-media4.fl.yelpcdn.com/bphoto/BU3VSH_b3ZDlcdq3POdsZg/90s.jpg", "title": "Cassell\u2019s Hamburgers", "lon": -118.300722, "hours": "8:00 am - 11:00 pm", "lat": 34.063334}, {"category": "Restaurants", "city": "Los Angeles, CA", "addr": "1032 S Fairfax Ave Los Angeles, CA 90019", "rating": "4.5", "imageurl": "https://s3-media2.fl.yelpcdn.com/bphoto/NsXEjHV9809xsXB09SLKXQ/90s.jpg", "title": "Paradocs Coffee and Tea", "lon": -118.3639872, "hours": "8:00 am - 6:00 pm", "lat": 34.0571317}, {"category": "Restaurants", "city": "Los Angeles, CA", "addr": "9824 National Blvd Ste C Los Angeles, CA 90034", "rating": "4.0", "imageurl": "https://s3-media2.fl.yelpcdn.com/bphoto/W-CSiFt5hIrwTx52-u25Fw/90s.jpg", "title": "Sushi Zo", "lon": -118.400832, "hours": "12:00 pm - 2:00 pm\n6:00 pm - 9:30 pm", "lat": 34.0311016}, {"category": "Restaurants", "city": "Los Angeles, CA", "addr": "1520 N Cahuenga Blvd Los Angeles, CA 90028", "rating": "3.5", "imageurl": "https://s3-media3.fl.yelpcdn.com/bphoto/k264Foz18j7BAuIbqH2xKA/90s.jpg", "title": "Umami Burger - Hollywood", "lon": -118.3291395, "hours": "11:30 am - 11:00 pm", "lat": 34.0990036}, {"category": "Restaurants", "city": "Los Angeles, CA", "addr": "347 E 1st St Los Angeles, CA 90012", "rating": "3.5", "imageurl": "https://s3-media4.fl.yelpcdn.com/bphoto/_cNHI6eLX2q70yjN3CKYcg/90s.jpg", "title": "Far Bar", "lon": -118.239466, "hours": "11:00 am - 2:00 am", "lat": 34.0497379}, {"category": "Restaurants", "city": "Los Angeles, CA", "addr": "10889 Lindbrook Dr Los Angeles, CA 90024", "rating": "3.5", "imageurl": "https://s3-media2.fl.yelpcdn.com/bphoto/MNPz5hlYQsrtSM4ZGG46wg/90s.jpg", "title": "800 Degrees Neapolitan Pizzeria", "lon": -118.44431695965, "hours": "11:00 am - 2:00 am", "lat": 34.059930827289}, {"category": "Restaurants", "city": "Los Angeles, CA", "addr": "1053 S Fairfax Ave Los Angeles, CA 90019", "rating": "4.5", "imageurl": "https://s3-media2.fl.yelpcdn.com/bphoto/d9EwHESAjAB52mb5JLbt0g/90s.jpg", "title": "Meals by Genet", "lon": -118.3647521, "hours": "5:30 pm - 10:00 pm", "lat": 34.056724}, {"category": "Restaurants", "city": "Los Angeles, CA", "addr": "7200 Melrose Ave Los Angeles, CA 90046", "rating": "4.5", "imageurl": "https://s3-media4.fl.yelpcdn.com/bphoto/1eHOM0fEmYp6Bn2jUm4sdQ/90s.jpg", "title": "Fratelli Cafe", "lon": -118.3463668, "hours": "7:00 am - 7:00 pm", "lat": 34.0833307}, {"category": "Restaurants", "city": "Los Angeles, CA", "addr": "3818 W Sunset Blvd Los Angeles, CA 90026", "rating": "4.0", "imageurl": "https://s3-media3.fl.yelpcdn.com/bphoto/EmYae_kOILx2f8KvZaPSMg/90s.jpg", "title": "Flore Vegan Cuisine", "lon": -118.279427202132, "hours": "11:00 am - 4:00 pm", "lat": 34.0912104093655}, {"category": "Restaurants", "city": "Los Angeles, CA", "addr": "3960 Wilshire Blvd Ste 100 Los Angeles, CA 90010", "rating": "4.5", "imageurl": "https://s3-media4.fl.yelpcdn.com/bphoto/4jXVWEP4rc3hAbWT-LppOA/90s.jpg", "title": "Hwa Sun Ji Tea & Coffee", "lon": -118.313181102276, "hours": "1:00 pm - 12:00 am", "lat": 34.0613458399227}, {"category": "Restaurants", "city": "Los Angeles, CA", "addr": "4624 Hollywood Blvd Los Angeles, CA 90027", "rating": "4.5", "imageurl": "https://s3-media1.fl.yelpcdn.com/bphoto/DqEggVlsP_GV5jn7F_uo7g/90s.jpg", "title": "HomeState", "lon": -118.290212, "hours": "8:00 am - 3:00 pm", "lat": 34.099795}, {"category": "Restaurants", "city": "Los Angeles, CA", "addr": "6372 W Sunset Blvd Los Angeles, CA 90028", "rating": "4.0", "imageurl": "https://s3-media3.fl.yelpcdn.com/bphoto/HwmxfwAcvYYyXLpHzO8wAw/90s.jpg", "title": "Stella Barra Pizzeria", "lon": -118.328681, "hours": "11:00 am - 11:00 pm", "lat": 34.097718}, {"category": "Restaurants", "city": "Los Angeles, CA", "addr": "2208 Sawtelle Blvd Los Angeles, CA 90064", "rating": "4.0", "imageurl": "https://s3-media3.fl.yelpcdn.com/bphoto/4ujl035_dVoVi0SAOQgsEA/90s.jpg", "title": "Daikokuya Sawtelle", "lon": -118.4408416, "hours": "11:00 am - 2:00 am", "lat": 34.0379018}, {"category": "Restaurants", "city": "Los Angeles, CA", "addr": "1757 N Vermont Ave Los Angeles, CA 90027", "rating": "4.0", "imageurl": "https://s3-media4.fl.yelpcdn.com/bphoto/I5TaQUBXoawC0Hy11LN-1g/90s.jpg", "title": "Il Capriccio on Vermont", "lon": -118.291857, "hours": "11:00 am - 3:00 pm\n5:00 pm - 10:00 pm", "lat": 34.103042}, {"category": "Restaurants", "city": "Los Angeles, CA", "addr": "764 S Western Ave Los Angeles, CA 90005", "rating": "4.0", "imageurl": "https://s3-media3.fl.yelpcdn.com/bphoto/FhlPe9xq-WL602WujpUYxA/90s.jpg", "title": "Pollo a La Brasa Western", "lon": -118.3088963, "hours": "11:00 am - 9:30 pm", "lat": 34.0578828}, {"category": "Restaurants", "city": "Los Angeles, CA", "addr": "10855 Venice Blvd Los Angeles, CA 90034", "rating": "4.0", "imageurl": "https://s3-media3.fl.yelpcdn.com/bphoto/gQ-dYrlbMWKcm5XaaJP2UA/90s.jpg", "title": "Tara\u2019s Himalayan Cuisine", "lon": -118.41051, "hours": "12:00 pm - 10:00 pm", "lat": 34.016931}, {"category": "Restaurants", "city": "Los Angeles, CA", "addr": "424 E 2nd St Honda Plaza Los Angeles, CA 90012", "rating": "4.5", "imageurl": "https://s3-media4.fl.yelpcdn.com/bphoto/V8rPLcVJQZQQ98yS_IVZsg/90s.jpg", "title": "Kinjiro", "lon": -118.238583702377, "hours": "5:30 pm - 9:00 pm", "lat": 34.0466898946907}, {"category": "Restaurants", "city": "Los Angeles, CA", "addr": "501 W Olympic Blvd Ste 102 Los Angeles, CA 90015", "rating": "4.0", "imageurl": "https://s3-media4.fl.yelpcdn.com/bphoto/6NcUmg1OdBWz3eB4_Ywz4A/90s.jpg", "title": "Yoji\u00e9 Japanese Fondue", "lon": -118.260659277741, "hours": "5:00 pm - 10:00 pm", "lat": 34.0430740174303}, {"category": "Restaurants", "city": "Los Angeles, CA", "addr": "8420 W 3rd St Los Angeles, CA 90048", "rating": "4.0", "imageurl": "https://s3-media4.fl.yelpcdn.com/bphoto/j9r3g9ogsZXvO5f5jbfKcg/90s.jpg", "title": "The Izaka-Ya by Katsu-Ya West Hollywood", "lon": -118.3739352, "hours": "12:00 pm - 2:30 pm\n5:30 pm - 11:00 pm", "lat": 34.0728803}, {"category": "Restaurants", "city": "Los Angeles, CA", "addr": "525 S Flower St Ste 120 Los Angeles, CA 90071", "rating": "4.0", "imageurl": "https://s3-media2.fl.yelpcdn.com/bphoto/N8wP6NVCktCUsI1zl_2vEQ/90s.jpg", "title": "DRAGO Centro", "lon": -118.257885974904, "hours": "11:30 am - 2:30 pm\n5:00 pm - 10:00 pm", "lat": 34.051017473398}, {"category": "Restaurants", "city": "Los Angeles, CA", "addr": "3062 W 8th St Los Angeles, CA 90005", "rating": "4.5", "imageurl": "https://s3-media1.fl.yelpcdn.com/bphoto/IyCFaSPs7Bz1jxivbeWkag/90s.jpg", "title": "ACA Grill", "lon": -118.2937431, "hours": "11:00 am - 9:00 pm", "lat": 34.0574375}, {"category": "Restaurants", "city": "Los Angeles, CA", "addr": "1111 Wilshire Blvd Los Angeles, CA 90017", "rating": "4.0", "imageurl": "https://s3-media1.fl.yelpcdn.com/bphoto/Gn2a-XYjWqve0iVMilcFzQ/90s.jpg", "title": "Plan Check Kitchen & Bar", "lon": -118.2634984, "hours": "11:30 am - 10:00 pm", "lat": 34.0524144}, {"category": "Restaurants", "city": "Los Angeles, CA", "addr": "7158 Beverly Blvd Los Angeles, CA 90036", "rating": "4.5", "imageurl": "https://s3-media3.fl.yelpcdn.com/bphoto/wOcAyfjAkq501tMnYMIWpw/90s.jpg", "title": "Spoon By H", "lon": -118.345360464556, "hours": "12:00 pm - 10:30 pm", "lat": 34.0760611862944}, {"category": "Restaurants", "city": "Los Angeles, CA", "addr": "639 S Spring St Los Angeles, CA 90014", "rating": "4.0", "imageurl": "https://s3-media1.fl.yelpcdn.com/bphoto/tA1IV5L5HLBxoZCTM5dgkg/90s.jpg", "title": "LA Caf\u00e9", "lon": -118.25194797753, "hours": "Open 24 hours", "lat": 34.045100848503}, {"category": "Restaurants", "city": "Los Angeles, CA", "addr": "4454 W Slauson Ave Los Angeles, CA 90043", "rating": "4.5", "imageurl": "https://s3-media1.fl.yelpcdn.com/bphoto/iyuH3Eqc4sfp8im0ffbkXQ/90s.jpg", "title": "Orleans and York Deli", "lon": -118.3537791, "hours": "10:00 am - 8:30 pm", "lat": 33.9888991}, {"category": "Restaurants", "city": "Los Angeles, CA", "addr": "2050 Sawtelle Blvd Los Angeles, CA 90025", "rating": "4.0", "imageurl": "https://s3-media3.fl.yelpcdn.com/bphoto/gurNETNWxIfVP3WGzQ2YMw/90s.jpg", "title": "Tsujita LA Artisan Noodle Annex", "lon": -118.4424537, "hours": "11:00 am - 12:00 am", "lat": 34.0401532}, {"category": "Restaurants", "city": "Los Angeles, CA", "addr": "4366 Fountain Ave Los Angeles, CA 90029", "rating": "4.0", "imageurl": "https://s3-media3.fl.yelpcdn.com/bphoto/1OALaWhdKf7D38WRVL8FJg/90s.jpg", "title": "India\u2019s Restaurant", "lon": -118.28517, "hours": "11:00 am - 1:00 am", "lat": 34.095583}, {"category": "Restaurants", "city": "Los Angeles, CA", "addr": "459 N Western Ave Los Angeles, CA 90004", "rating": "4.5", "imageurl": "https://s3-media4.fl.yelpcdn.com/bphoto/YpYHLY-jGt3hCO1bQ2206g/90s.jpg", "title": "Mes\u00f3n Cafe", "lon": -118.3094511, "hours": "7:00 am - 4:00 pm", "lat": 34.0797162}, {"category": "Restaurants", "city": "Los Angeles, CA", "addr": "100 N La Cienega Blvd Beverly Hills, CA 90211", "rating": "4.0", "imageurl": "https://s3-media1.fl.yelpcdn.com/bphoto/eiK1IyjMp0vi9ke5G3MMOA/90s.jpg", "title": "Lawry\u2019s The Prime Rib, Beverly Hills", "lon": -118.376046, "hours": "5:00 pm - 9:00 pm", "lat": 34.0678344219814}, {"category": "Restaurants", "city": "Los Angeles, CA", "addr": "4319 W Sunset Blvd Los Angeles, CA 90029", "rating": "4.5", "imageurl": "https://s3-media4.fl.yelpcdn.com/bphoto/hz83hvS1rT29BtD3v5VDlA/90s.jpg", "title": "My Vegan Gold", "lon": -118.2831548, "hours": "11:00 am - 3:00 pm\n5:00 pm - 10:00 pm", "lat": 34.0951329}, {"category": "Restaurants", "city": "Los Angeles, CA", "addr": "7469 Melrose Ave Los Angeles, CA 90046", "rating": "4.0", "imageurl": "https://s3-media2.fl.yelpcdn.com/bphoto/Hm-7bLNt2olP2kuepYUa0A/90s.jpg", "title": "Vinoteque On Melrose", "lon": -118.3527802, "hours": "5:00 pm - 12:00 am", "lat": 34.0837825}, {"category": "Restaurants", "city": "Los Angeles, CA", "addr": "7825 Beverly Blvd Los Angeles, CA 90036", "rating": "4.5", "imageurl": "https://s3-media1.fl.yelpcdn.com/bphoto/WpEeuBVv4w5PRuote6-EVw/90s.jpg", "title": "Bagel Broker", "lon": -118.3608503, "hours": "6:00 am - 5:00 pm", "lat": 34.0763922}, {"category": "Restaurants", "city": "Los Angeles, CA", "addr": "707 E 4th Pl Los Angeles, CA 90013", "rating": "4.0", "imageurl": "https://s3-media4.fl.yelpcdn.com/bphoto/DCK65MM5q6ojeYsr1ZrJxA/90s.jpg", "title": "EightyTwo", "lon": -118.2373834, "hours": "6:00 pm - 2:00 am", "lat": 34.0453141}, {"category": "Restaurants", "city": "Los Angeles, CA", "addr": "1415 S La Cienega Blvd Los Angeles, CA 90035", "rating": "4.0", "imageurl": "https://s3-media2.fl.yelpcdn.com/bphoto/Iqb7VQf5mMLMXCnxT5P24A/90s.jpg", "title": "Versailles", "lon": -118.376452211555, "hours": "11:00 am - 10:00 pm", "lat": 34.0525902427251}, {"category": "Restaurants", "city": "Los Angeles, CA", "addr": "1936 E 7th St Los Angeles, CA 90021", "rating": "4.5", "imageurl": "https://s3-media4.fl.yelpcdn.com/bphoto/3HDc7agV4b5J2tSiRPiHeA/90s.jpg", "title": "Everson Royce Bar", "lon": -118.2325532, "hours": "5:00 pm - 2:00 am", "lat": 34.0343737}, {"category": "Restaurants", "city": "Los Angeles, CA", "addr": "351 N Fairfax Ave Los Angeles, CA 90036", "rating": "4.0", "imageurl": "https://s3-media4.fl.yelpcdn.com/bphoto/l8PiUwh98EDMWTD4H-kVsg/90s.jpg", "title": "Plan Check Fairfax", "lon": -118.361774, "hours": "12:00 pm - 10:00 pm", "lat": 34.077642}, {"category": "Restaurants", "city": "Los Angeles, CA", "addr": "8450 W 3rd St Los Angeles, CA 90048", "rating": "4.0", "imageurl": "https://s3-media3.fl.yelpcdn.com/bphoto/dDbEIvGJGqRg0RQpD1wXRQ/90s.jpg", "title": "Toca Madera", "lon": -118.37494, "hours": "5:00 pm - 12:00 am", "lat": 34.072947}, {"category": "Restaurants", "city": "Los Angeles, CA", "addr": "5112 Hollywood Blvd Ste 107 Los Angeles, CA 90027", "rating": "4.5", "imageurl": "https://s3-media3.fl.yelpcdn.com/bphoto/iDhztu7zgbBHaZyAYN_0Dw/90s.jpg", "title": "Carousel Restaurant", "lon": -118.3011987, "hours": "11:30 am - 9:15 pm", "lat": 34.1013132}, {"category": "Restaurants", "city": "Los Angeles, CA", "addr": "846 N La Cienega Blvd Los Angeles, CA 90069", "rating": "4.0", "imageurl": "https://s3-media3.fl.yelpcdn.com/bphoto/pQvyj3xyMxww-VPC3YGGRg/90s.jpg", "title": "Vito\u2019s Pizza", "lon": -118.376146580204, "hours": "11:00 am - 11:00 pm", "lat": 34.0867992852399}, {"category": "Restaurants", "city": "Los Angeles, CA", "addr": "5583 W Pico Blvd Los Angeles, CA 90019", "rating": "4.5", "imageurl": "https://s3-media1.fl.yelpcdn.com/bphoto/V0tMCKb6Fw6q8b106olFFw/90s.jpg", "title": "My Two Cents", "lon": -118.35959, "hours": "12:00 pm - 9:00 pm", "lat": 34.0498941}, {"category": "Restaurants", "city": "Los Angeles, CA", "addr": "1300 N Spring St Los Angeles, CA 90012", "rating": "4.0", "imageurl": "https://s3-media1.fl.yelpcdn.com/bphoto/q_5kaA_4Ev0nFKERUWJaXw/90s.jpg", "title": "Nick\u2019s Cafe", "lon": -118.233223, "hours": "5:30 am - 3:00 pm", "lat": 34.066072}, {"category": "Restaurants", "city": "Los Angeles, CA", "addr": "7160 Melrose Ave Los Angeles, CA 90046", "rating": "4.5", "imageurl": "https://s3-media4.fl.yelpcdn.com/bphoto/MA9nuFYfJLxgXQfOYoypKQ/90s.jpg", "title": "Murakami Sushi", "lon": -118.345596268773, "hours": "12:00 pm - 2:30 pm\n5:30 pm - 10:00 pm", "lat": 34.0833787161873}, {"category": "Restaurants", "city": "Los Angeles, CA", "addr": "119 E 5th St Los Angeles, CA 90013", "rating": "5.0", "imageurl": "https://s3-media4.fl.yelpcdn.com/bphoto/QmM2fOLaAHmChTxdLqJIzA/90s.jpg", "title": "Strada Eateria & Coffee", "lon": -118.2478117, "hours": "10:00 am - 8:00 pm", "lat": 34.0464186}, {"category": "Restaurants", "city": "Los Angeles, CA", "addr": "456 E 2nd St Los Angeles, CA 90012", "rating": "4.0", "imageurl": "https://s3-media1.fl.yelpcdn.com/bphoto/VUcxQFFC9acSP6PTiE6CXQ/90s.jpg", "title": "Men Oh Tokushima Ramen", "lon": -118.238416233819, "hours": "11:30 am - 2:30 pm\n5:30 pm - 10:00 pm", "lat": 34.0469096407686}, {"category": "Restaurants", "city": "Los Angeles, CA", "addr": "2819 James M Wood Blvd Los Angeles, CA 90006", "rating": "4.0", "imageurl": "https://s3-media3.fl.yelpcdn.com/bphoto/jIjipnSKTZSnTryGPn_OjQ/90s.jpg", "title": "Corner Place", "lon": -118.2898631, "hours": "11:00 am - 10:00 pm", "lat": 34.0562562}, {"category": "Restaurants", "city": "Los Angeles, CA", "addr": "8221 W 3rd St Los Angeles, CA 90048", "rating": "3.5", "imageurl": "https://s3-media3.fl.yelpcdn.com/bphoto/AsXgAWQeqTvf3SV4JBuhtw/90s.jpg", "title": "Toast Bakery Cafe", "lon": -118.3688071, "hours": "7:30 am - 6:00 pm", "lat": 34.0727688}, {"category": "Restaurants", "city": "Los Angeles, CA", "addr": "5176 Hollywood Blvd Los Angeles, CA 90027", "rating": "4.0", "imageurl": "https://s3-media2.fl.yelpcdn.com/bphoto/JoutsOUZBGrQ-qdbsWvdmA/90s.jpg", "title": "Sanamluang Cafe", "lon": -118.302894830704, "hours": "11:00 am - 2:30 am", "lat": 34.1013265448907}, {"category": "Restaurants", "city": "Los Angeles, CA", "addr": "6710 La Tijera Blvd Los Angeles, CA 90045", "rating": "4.0", "imageurl": "https://s3-media1.fl.yelpcdn.com/bphoto/OVx8fq33Imo7cRA-5rp2sg/90s.jpg", "title": "Pann\u2019s Restaurant", "lon": -118.3705286, "hours": "7:00 am - 3:00 pm", "lat": 33.9781112}, {"category": "Restaurants", "city": "Los Angeles, CA", "addr": "2135 W Sunset Blvd Los Angeles, CA 90026", "rating": "4.5", "imageurl": "https://s3-media1.fl.yelpcdn.com/bphoto/3Y6UwHAjRxKe7t2CuifNfA/90s.jpg", "title": "Elf Caf\u00e9", "lon": -118.264616, "hours": "6:00 pm - 11:00 pm", "lat": 34.077812}, {"category": "Restaurants", "city": "Los Angeles, CA", "addr": "123 Astronaut E S Onizuka St Los Angeles, CA 90012", "rating": "4.0", "imageurl": "https://s3-media3.fl.yelpcdn.com/bphoto/SrNFWY1xG_m2BmiGWkQW_g/90s.jpg", "title": "Curry House", "lon": -118.24242217791, "hours": "11:00 am - 9:00 pm", "lat": 34.0501374364326}, {"category": "Restaurants", "city": "Los Angeles, CA", "addr": "123 Astronaut E S Onizuka St Ste 303 Los Angeles, CA 90012", "rating": "3.5", "imageurl": "https://s3-media3.fl.yelpcdn.com/bphoto/9doJ-_e523IZeHs-4fyDIA/90s.jpg", "title": "Orochon Ramen", "lon": -118.242309727081, "hours": "11:30 am - 10:30 pm", "lat": 34.0498759087342}, {"category": "Restaurants", "city": "Los Angeles, CA", "addr": "615 N La Brea Ave Los Angeles, CA 90036", "rating": "4.5", "imageurl": "https://s3-media3.fl.yelpcdn.com/bphoto/3xlEUqKFgqx3Y9nUJ3ClPg/90s.jpg", "title": "Pizza Romana", "lon": -118.3443106, "hours": "11:00 am - 10:00 pm", "lat": 34.0823383}, {"category": "Restaurants", "city": "Los Angeles, CA", "addr": "911 S Hill St Los Angeles, CA 90015", "rating": "4.0", "imageurl": "https://s3-media1.fl.yelpcdn.com/bphoto/X8rFu8tdJDrb8-KtCFu_CA/90s.jpg", "title": "The Stocking Frame", "lon": -118.257759626778, "hours": "11:00 am - 11:00 pm", "lat": 34.0428503408091}, {"category": "Restaurants", "city": "Los Angeles, CA", "addr": "800 W Olympic Blvd Los Angeles, CA 90015", "rating": "3.5", "imageurl": "https://s3-media4.fl.yelpcdn.com/bphoto/Hy3A29dw8DjlzsF4ceV93Q/90s.jpg", "title": "Yard House", "lon": -118.265804750686, "hours": "11:00 am - 12:00 am", "lat": 34.0449339896765}, {"category": "Restaurants", "city": "Los Angeles, CA", "addr": "3850 Wilshire Blvd Ste 107 Los Angeles, CA 90010", "rating": "4.5", "imageurl": "https://s3-media3.fl.yelpcdn.com/bphoto/sTwF1ZNX1NjsdCRwKMwgXw/90s.jpg", "title": "Document Coffee Bar", "lon": -118.310909232275, "hours": "7:00 am - 7:00 pm", "lat": 34.0612100152212}, {"category": "Restaurants", "city": "Los Angeles, CA", "addr": "4859 W Slauson Ave Los Angeles, CA 90056", "rating": "4.5", "imageurl": "https://s3-media3.fl.yelpcdn.com/bphoto/LdSV0fVKWjiUF9zuGsO1Tw/90s.jpg", "title": "Mike\u2019s Deli", "lon": -118.362671546638, "hours": "8:00 am - 9:00 pm", "lat": 33.9880055506272}, {"category": "Restaurants", "city": "Los Angeles, CA", "addr": "3450 W 6th St Ste 106 Los Angeles, CA 90020", "rating": "4.0", "imageurl": "https://s3-media3.fl.yelpcdn.com/bphoto/_CAkfDSjfTO2nZEXTf6nHw/90s.jpg", "title": "Chunju Han-il Kwan", "lon": -118.29713344574, "hours": "8:00 am - 11:00 pm", "lat": 34.0630990152011}, {"category": "Restaurants", "city": "Los Angeles, CA", "addr": "5905 Wilshire Blvd Los Angeles, CA 90036", "rating": "4.5", "imageurl": "https://s3-media3.fl.yelpcdn.com/bphoto/_ncNEkeQpV3pLCAhfPgrYA/90s.jpg", "title": "Urban Light at LACMA", "lon": -118.359158523381, "hours": "11:00 am - 5:00 pm", "lat": 34.063108458696}, {"category": "Restaurants", "city": "Los Angeles, CA", "addr": "5101 Santa Monica Blvd Los Angeles, CA 90029", "rating": "4.5", "imageurl": "https://s3-media2.fl.yelpcdn.com/bphoto/wYVUgNy9B-NzFTBT6kgm2A/90s.jpg", "title": "Spicy BBQ Restaurant", "lon": -118.3008925, "hours": "11:00 am - 9:30 pm", "lat": 34.0911736}, {"category": "Restaurants", "city": "Los Angeles, CA", "addr": "5633 Hollywood Blvd Los Angeles, CA 90028", "rating": "4.5", "imageurl": "https://s3-media2.fl.yelpcdn.com/bphoto/MHYqrWU8-CcdRvdbMSILkw/90s.jpg", "title": "I Panini di Ambra", "lon": -118.312493551102, "hours": "9:00 am - 7:00 pm", "lat": 34.1018622167479}, {"category": "Restaurants", "city": "Los Angeles, CA", "addr": "1104 S Hoover St Los Angeles, CA 90006", "rating": "3.5", "imageurl": "https://s3-media4.fl.yelpcdn.com/bphoto/_WWaMaXvzu6lEC_-jssBSw/90s.jpg", "title": "El Taurino", "lon": -118.2838601, "hours": "8:30 am - 3:00 am", "lat": 34.0514724}, {"category": "Restaurants", "city": "Los Angeles, CA", "addr": "601 S Central Ave Los Angeles, CA 90021", "rating": "4.0", "imageurl": "https://s3-media4.fl.yelpcdn.com/bphoto/dVf5pPk_QdkX2kd43xjrkA/90s.jpg", "title": "Yxta Cocina Mexicana", "lon": -118.240427716488, "hours": "11:30 am - 9:00 pm", "lat": 34.0390802757744}, {"category": "Restaurants", "city": "Los Angeles, CA", "addr": "3626 W Sunset Blvd Los Angeles, CA 90026", "rating": "3.5", "imageurl": "https://s3-media4.fl.yelpcdn.com/bphoto/q3KBmySQcKxn3Ti90visxQ/90s.jpg", "title": "Cliff\u2019s Edge", "lon": -118.277726, "hours": "6:00 pm - 12:00 am", "lat": 34.090192}, {"category": "Restaurants", "city": "Los Angeles, CA", "addr": "861 N La Cienega Blvd Los Angeles, CA 90069", "rating": "3.5", "imageurl": "https://s3-media2.fl.yelpcdn.com/bphoto/E6rV_0gzKzgZ6azixN4iPg/90s.jpg", "title": "Barton G Los Angeles", "lon": -118.376752998217, "hours": "6:00 pm - 10:00 pm", "lat": 34.0869539412233},