[
  {"category": "Things to do", "city": "Urbana Champaign, IL", "addr": "123 W Main St Ste 104 Urbana, IL 61801", "rating": "5.0", "imageurl": "https://s3-media2.fl.yelpcdn.com/bphoto/84ACQbt1uZVL_taGd4Kxkg/90s.jpg", "title": "Champaign-Urbana Adventures in Time & Space", "lon": -88.2082725, "hours": "9:00 am - 10:00 pm", "lat": 40.1121494},{"category": "Things to do", "city": "Urbana Champaign, IL", "addr": "201 E Peabody Dr Champaign, IL 61820", "rating": "4.0", "imageurl": "https://s3-media4.fl.yelpcdn.com/bphoto/qw-vlw376tqhmYjKiY32Cg/90s.jpg", "title": "Activities and Recreation Center - ARC", "lon": -88.2355555, "hours": "6:00 am - 12:00 am", "lat": 40.1008296},{"category": "Things to do", "city": "Urbana Champaign, IL", "addr": "61 E University St Champaign, IL 61820", "rating": "5.0", "imageurl": "https://s3-media4.fl.yelpcdn.com/bphoto/2La8sNTs4cULHAoF9lCgHg/90s.jpg", "title": "Brainstorm Escapes", "lon": -88.2399833730163, "hours": "3:00 pm - 8:00 pm", "lat": 40.1161286032989},{"category": "Things to do", "city": "Urbana Champaign, IL", "addr": "1808 Round Barn Rd # C Champaign, IL 61821", "rating": "4.5", "imageurl": "https://s3-media1.fl.yelpcdn.com/bphoto/lfFF9IzaTtRkLqW36jOqXA/90s.jpg", "title": "The Pottery Place", "lon": -88.277709, "hours": "N/A - N/A", "lat": 40.1115366},{"category": "Things to do", "city": "Urbana Champaign, IL", "addr": "815 Dennison Dr Champaign, IL 61820", "rating": "4.5", "imageurl": "https://s3-media3.fl.yelpcdn.com/bphoto/23mwNpVinC9Bwl9PUzGGjQ/90s.jpg", "title": "Putt Zone Fun Center", "lon": -88.25686, "hours": "10:00 am - 10:00 pm", "lat": 40.127922},{"category": "Things to do", "city": "Urbana Champaign, IL", "addr": "401 S Vine St Urbana, IL 61801", "rating": "4.5", "imageurl": "https://s3-media3.fl.yelpcdn.com/bphoto/wFFgAZqz9C_-Kq0Ywcnpjg/90s.jpg", "title": "Market at the Square", "lon": -88.205349469381, "hours": "7:00 am - 12:00 pm", "lat": 40.10954911598},{"category": "Things to do", "city": "Urbana Champaign, IL", "addr": "Windsor Rd And Race St Urbana, IL 61801", "rating": "5.0", "imageurl": "https://s3-media4.fl.yelpcdn.com/bphoto/c2Ocs0g1Ehh19BG8DsxQrg/90s.jpg", "title": "Meadowbrook Park", "lon": -88.2120315, "hours": "N/A - N/A", "lat": 40.1059233},{"category": "Things to do", "city": "Urbana Champaign, IL", "addr": "24 E Green St Ste 11 Champaign, IL 61820", "rating": "5.0", "imageurl": "https://s3-media2.fl.yelpcdn.com/bphoto/z9WtKHwOeilW_vqHJOeLXA/90s.jpg", "title": "Defy Gravity", "lon": -88.241673, "hours": "5:00 pm - 9:30 pm", "lat": 40.110524},{"category": "Things to do", "city": "Urbana Champaign, IL", "addr": "1502 N Cunnungham Ave Urbana, IL 61802", "rating": "4.5", "imageurl": "https://s3-media3.fl.yelpcdn.com/bphoto/MlZfDYUvAskLd_hgTgyg2g/90s.jpg", "title": "Urbana Boulders", "lon": -88.1994501873851, "hours": "2:00 pm - 10:00 pm", "lat": 40.1259149221235},{"category": "Things to do", "city": "Urbana Champaign, IL", "addr": "106 N Walnut St Champaign, IL 61820", "rating": "4.0", "imageurl": "https://s3-media1.fl.yelpcdn.com/bphoto/4NxTw61FMo61TmDDDK92sA/90s.jpg", "title": "Esquire Lounge", "lon": -88.242292, "hours": "11:00 am - 2:00 am", "lat": 40.116597},{"category": "Things to do", "city": "Urbana Champaign, IL", "addr": "123 W Main St Ste 104 Urbana, IL 61801", "rating": "5.0", "imageurl": "https://s3-media2.fl.yelpcdn.com/bphoto/84ACQbt1uZVL_taGd4Kxkg/90s.jpg", "title": "Champaign-Urbana Adventures in Time & Space", "lon": -88.2082725, "hours": "9:00 am - 10:00 pm", "lat": 40.1121494},{"category": "Things to do", "city": "Urbana Champaign, IL", "addr": "Located in Lincoln Square Shopping Center", "rating": "5.0", "imageurl": "https://s3-media4.fl.yelpcdn.com/bphoto/7kSlqQyhoHHoaqoax71eSw/90s.jpg", "title": "LabEscape", "lon": -88.2070866, "hours": "N/A - N/A", "lat": 40.1105839},{"category": "Things to do", "city": "Urbana Champaign, IL", "addr": "1505 N Broadway Ave Urbana, IL 61801", "rating": "4.5", "imageurl": "https://s3-media1.fl.yelpcdn.com/bphoto/WAWbHnKZqiYYTuyCN_K4lw/90s.jpg", "title": "Anita Purves Nature Center", "lon": -88.207736, "hours": "8:00 am - 5:00 pm", "lat": 40.126648},{"category": "Things to do", "city": "Urbana Champaign, IL", "addr": "1401 W Green St Urbana, IL 61801", "rating": "4.5", "imageurl": "https://s3-media2.fl.yelpcdn.com/bphoto/2E8e8fSKYpYTSmTD4xbuwQ/90s.jpg", "title": "Illini Union", "lon": -88.227207813792, "hours": "N/A - N/A", "lat": 40.109760744757},{"category": "Things to do", "city": "Urbana Champaign, IL", "addr": "Serving Urbana and surrounding area", "rating": "4.0", "imageurl": "https://s3-media1.fl.yelpcdn.com/bphoto/JPSJbZq3AwfwbsiHmiB7hg/90s.jpg", "title": "Peoria Charter Coach Company", "lon": -88.23223114013672, "hours": "9:00 am - 5:00 pm", "lat": 40.114039575807524},{"category": "Things to do", "city": "Urbana Champaign, IL", "addr": "Park And Broadway Urbana, IL 61801", "rating": "4.5", "imageurl": "https://s3-media4.fl.yelpcdn.com/bphoto/AZqU1OreIiUI-hqfluWaIQ/90s.jpg", "title": "Crystal Lake Park", "lon": -88.207547, "hours": "N/A - N/A", "lat": 40.1172058},{"category": "Things to do", "city": "Urbana Champaign, IL", "addr": "406 E Armory Ave Champaign, IL 61820", "rating": "3.5", "imageurl": "https://s3-media3.fl.yelpcdn.com/bphoto/WPBWplDgnuckMlMzdWSSXA/90s.jpg", "title": "Ice Arena", "lon": -88.2325143, "hours": "N/A - N/A", "lat": 40.1058636},{"category": "Things to do", "city": "Urbana Champaign, IL", "addr": "203 West Park Ave Champaign, IL 61820", "rating": "4.0", "imageurl": "https://s3-media1.fl.yelpcdn.com/bphoto/zmhsn35D2j3Zg1SiWfgcGQ/90s.jpg", "title": "Roger Ebertjeehaeng Overlooked Film Festival", "lon": -88.2455847, "hours": "N/A - N/A", "lat": 40.1170182},{"category": "Things to do", "city": "Urbana Champaign, IL", "addr": "500 E Peabody Dr Champaign, IL 61820", "rating": "4.5", "imageurl": "https://s3-media2.fl.yelpcdn.com/bphoto/9RyusfipyBK8609_JBQ0vw/90s.jpg", "title": "Krannert Art Museum", "lon": -88.2317371, "hours": "9:00 am - 5:00 pm", "lat": 40.101862},{"category": "Things to do", "city": "Urbana Champaign, IL", "addr": "301 Eisner Rd Champaign, IL 61822", "rating": "4.5", "imageurl": "https://s3-media4.fl.yelpcdn.com/bphoto/erVRmY4zB0ASFvPMAWG6sA/90s.jpg", "title": "Just Fore Fun Golf Center", "lon": -88.2360093349182, "hours": "N/A - N/A", "lat": 40.1379336687464},{"category": "Things to do", "city": "Urbana Champaign, IL", "addr": "346 N Neil St Champaign, IL 61820", "rating": "3.0", "imageurl": "https://s3-media1.fl.yelpcdn.com/bphoto/boEJm8AHJU517A1fI-c8vg/90s.jpg", "title": "Orpheum Childrenjeehaeng Science Museum", "lon": -88.2425055, "hours": "10:00 am - 4:00 pm", "lat": 40.1194691},{"category": "Things to do", "city": "Urbana Champaign, IL", "addr": "1302 N Coler Ave Urbana, IL 61801", "rating": "5.0", "imageurl": "https://s3-media1.fl.yelpcdn.com/bphoto/HoUSoaNgL-XiSOtYe6HUvQ/90s.jpg", "title": "Midway of Madness Haunted Attraction", "lon": -88.2126321, "hours": "7:00 pm - 11:00 pm", "lat": 40.1234298},{"category": "Things to do", "city": "Urbana Champaign, IL", "addr": "2205 W Sangamon Dr Champaign, IL 61821", "rating": "3.5", "imageurl": "https://s3-media2.fl.yelpcdn.com/bphoto/vIJFsbc08oHp_MeFrcas0w/90s.jpg", "title": "Sholem Aquatic Center", "lon": -88.2827842, "hours": "N/A - N/A", "lat": 40.1021014},{"category": "Things to do", "city": "Urbana Champaign, IL", "addr": "1501 E Perkins Rd Urbana, IL 61803", "rating": "4.5", "imageurl": "https://s3-media2.fl.yelpcdn.com/bphoto/D1faJOTDmlPVGQhX6i5W7g/90s.jpg", "title": "Urbana Dog Park", "lon": -88.187988, "hours": "N/A - N/A", "lat": 40.124499},{"category": "Things to do", "city": "Urbana Champaign, IL", "addr": "4410 N Lincoln Ave Champaign, IL 61822", "rating": "5.0", "imageurl": "https://s3-media4.fl.yelpcdn.com/bphoto/Zc7k-FOysevECfYGB5iKqA/90s.jpg", "title": "Prairie Fruits Farm & Creamery", "lon": -88.2099078, "hours": "9:30 am - 1:00 pm", "lat": 40.1622186},{"category": "Things to do", "city": "Urbana Champaign, IL", "addr": "1401 Grandview Dr Champaign, IL 61820", "rating": "4.5", "imageurl": "https://s3-media3.fl.yelpcdn.com/bphoto/d_NVWhr7sROgWXOsyucRCA/90s.jpg", "title": "Hessel Park", "lon": -88.250542367078, "hours": "N/A - N/A", "lat": 40.100117080479},{"category": "Things to do", "city": "Urbana Champaign, IL", "addr": "1401 W Green St Rm 115 Urbana, IL 61801", "rating": "5.0", "imageurl": "https://s3-media1.fl.yelpcdn.com/bphoto/qrISY05OAFBd8vYFEByyhA/90s.jpg", "title": "Illini Union Bowling Lanes", "lon": -88.2272456, "hours": "N/A - N/A", "lat": 40.109387},{"category": "Things to do", "city": "Urbana Champaign, IL", "addr": "44 E Main St Ste 407 Champaign, IL 61820", "rating": "5.0", "imageurl": "https://s3-media1.fl.yelpcdn.com/bphoto/wyZhy14INMjspKnlAsMiCA/90s.jpg", "title": "Restoring Balance", "lon": -88.2413998, "hours": "8:00 am - 6:00 pm", "lat": 40.1175979},{"category": "Things to do", "city": "Urbana Champaign, IL", "addr": "403 W Kirby Ave Champaign, IL 61820", "rating": "5.0", "imageurl": "https://s3-media2.fl.yelpcdn.com/bphoto/Sw-WZ17w0O6lPQimxqDhJw/90s.jpg", "title": "Jimjeehaeng Place", "lon": -88.248794, "hours": "11:00 am - 11:00 pm", "lat": 40.0977391},{"category": "Things to do", "city": "Urbana Champaign, IL", "addr": "901 N Dunlap Ave Savoy, IL 61874", "rating": "3.5", "imageurl": "https://s3-media1.fl.yelpcdn.com/bphoto/t38H2smiWgiMG1DDX_o2yA/90s.jpg", "title": "Old Orchard Links", "lon": -88.2506054, "hours": "N/A - N/A", "lat": 40.065128},{"category": "Things to do", "city": "Urbana Champaign, IL", "addr": "S Lincoln Ave & W Florida Ave Urbana, IL 61801", "rating": "4.5", "imageurl": "https://s3-media4.fl.yelpcdn.com/bphoto/1AD_bIp7nEhArUc_QoNw_g/90s.jpg", "title": "University Of Illinois Arboretum", "lon": -88.2191139, "hours": "N/A - N/A", "lat": 40.098168},{"category": "Things to do", "city": "Urbana Champaign, IL", "addr": "600 S Gregory St Urbana, IL 61801", "rating": "4.0", "imageurl": "https://s3-media1.fl.yelpcdn.com/bphoto/nYeOl9sctn5dpuihvyNrYA/90s.jpg", "title": "The William R and Clarice V Spurlock Museum", "lon": -88.2207856, "hours": "N/A - N/A", "lat": 40.1076189},{"category": "Things to do", "city": "Urbana Champaign, IL", "addr": "102 E University Ave Champaign, IL 61820", "rating": "5.0", "imageurl": "https://s3-media4.fl.yelpcdn.com/bphoto/9S_MXpeWktE0TRicAvE_AQ/90s.jpg", "title": "Champaign County Historical Museum Cattle Bank", "lon": -88.2385543, "hours": "N/A - N/A", "lat": 40.1164726},{"category": "Things to do", "city": "Urbana Champaign, IL", "addr": "500 S Goodwin Ave Urbana, IL 61801", "rating": "5.0", "imageurl": "https://s3-media1.fl.yelpcdn.com/bphoto/3Q3gJy9Lvd9QSQ3GIAkvZw/90s.jpg", "title": "Krannert Center for the Performing Arts", "lon": -88.222747, "hours": "10:00 am - 6:00 pm", "lat": 40.108013},{"category": "Things to do", "city": "Urbana Champaign, IL", "addr": "1900 S First St Champaign, IL 61820", "rating": "3.0", "imageurl": "https://s3-media4.fl.yelpcdn.com/bphoto/fqY_PzFLtFZ6a3-CONQT_A/90s.jpg", "title": "Houlihanjeehaeng", "lon": -88.2377565934386, "hours": "6:30 am - 10:00 am\n11:00 am - 10:00 pm", "lat": 40.0938755446946},{"category": "Things to do", "city": "Urbana Champaign, IL", "addr": "505 S Neil St Ste 8 Champaign, IL 61820", "rating": "2.5", "imageurl": "https://s3-media3.fl.yelpcdn.com/bphoto/CQ5vgMECKDodcgPQgsY39w/90s.jpg", "title": "K-On Karaoke", "lon": -88.2441689, "hours": "6:00 pm - 1:00 am", "lat": 40.1111456},{"category": "Things to do", "city": "Urbana Champaign, IL", "addr": "400 W University Ave Champaign, IL 61820", "rating": "4.5", "imageurl": "https://s3-media2.fl.yelpcdn.com/bphoto/aBmoorkZm7XlJ9oi4msSyQ/90s.jpg", "title": "West Side Park", "lon": -88.248521983969, "hours": "N/A - N/A", "lat": 40.11737077568},{"category": "Things to do", "city": "Urbana Champaign, IL", "addr": "505 S Chestnut St Champaign, IL 61820", "rating": "4.5", "imageurl": "https://s3-media1.fl.yelpcdn.com/bphoto/YqLFns6kNvh21v-tMIao5A/90s.jpg", "title": "Fat City Bar and Grill", "lon": -88.242733, "hours": "11:00 am - 2:00 am", "lat": 40.110967},{"category": "Things to do", "city": "Urbana Champaign, IL", "addr": "901 N Dunlap Ave Savoy, IL 61874", "rating": "4.0", "imageurl": "https://s3-media4.fl.yelpcdn.com/bphoto/LNMNKlVACvOFgIKB6pyKxw/90s.jpg", "title": "Old Orchard Lanes & Links", "lon": -88.2507519, "hours": "10:00 am - 11:00 pm", "lat": 40.0652239},{"category": "Things to do", "city": "Urbana Champaign, IL", "addr": "Champaign, IL 61820", "rating": "5.0", "imageurl": "https://s3-media3.fl.yelpcdn.com/assets/srv0/yelp_styleguide/fe8c0c8725d3/assets/img/default_avatars/business_90_square.png", "title": "Illini Book Exchange", "lon": -88.2412504, "hours": "N/A - N/A", "lat": 40.1166102},{"category": "Things to do", "city": "Urbana Champaign, IL", "addr": "2400 W Bradley Ave Parkland College Champaign, IL 61821", "rating": "4.0", "imageurl": "https://s3-media1.fl.yelpcdn.com/bphoto/RAP9sVmXPq3joWaY4hV07w/90s.jpg", "title": "William M Staerkel Planetarium", "lon": -88.290315, "hours": "7:00 pm - 9:00 pm", "lat": 40.1319766},{"category": "Things to do", "city": "Urbana Champaign, IL", "addr": "1401 N McKinley Ave Champaign, IL 61821", "rating": "3.5", "imageurl": "https://s3-media1.fl.yelpcdn.com/bphoto/AppwsLUIx-nu6h6Smp5ytA/90s.jpg", "title": "Arrowhead Lanes", "lon": -88.2633798, "hours": "12:00 pm - 12:00 am", "lat": 40.1301417},{"category": "Things to do", "city": "Urbana Champaign, IL", "addr": "119 W Main St Urbana, IL 61801", "rating": "5.0", "imageurl": "https://s3-media1.fl.yelpcdn.com/bphoto/I5C9QZ8Fz0OqngsXJjkJCw/90s.jpg", "title": "Blackbird", "lon": -88.2078016078982, "hours": "4:00 pm - 2:00 am", "lat": 40.1124098764835},{"category": "Things to do", "city": "Urbana Champaign, IL", "addr": "2302 W John St Champaign, IL 61821", "rating": "4.5", "imageurl": "https://s3-media4.fl.yelpcdn.com/bphoto/RSXjFuVYa5YhSoSP0yhzNA/90s.jpg", "title": "Refinery", "lon": -88.2842912, "hours": "5:00 am - 11:00 pm", "lat": 40.109573},{"category": "Things to do", "city": "Urbana Champaign, IL", "addr": "126 W Church Champaign, IL 61820", "rating": "5.0", "imageurl": "https://s3-media1.fl.yelpcdn.com/bphoto/Q7kzaFxF9deLSSAiPuABWA/90s.jpg", "title": "The Art Theater", "lon": -88.244666, "hours": "N/A - N/A", "lat": 40.118535},{"category": "Things to do", "city": "Urbana Champaign, IL", "addr": "Daniels St And McKinley Ave Champaign, IL 61820", "rating": "5.0", "imageurl": "https://s3-media3.fl.yelpcdn.com/assets/srv0/yelp_styleguide/fe8c0c8725d3/assets/img/default_avatars/business_90_square.png", "title": "Clark Park", "lon": -88.262517, "hours": "N/A - N/A", "lat": 40.108145},{"category": "Things to do", "city": "Urbana Champaign, IL", "addr": "1134 Sterling Dr Champaign, IL 61821", "rating": "5.0", "imageurl": "https://s3-media2.fl.yelpcdn.com/bphoto/04NA-z5_UG-Fg0u8TeC2iQ/90s.jpg", "title": "Noel Park", "lon": -88.2641149, "hours": "N/A - N/A", "lat": 40.0808329},{"category": "Things to do", "city": "Urbana Champaign, IL", "addr": "115 W Main St Urbana, IL 61801", "rating": "3.5", "imageurl": "https://s3-media2.fl.yelpcdn.com/bphoto/HdQfHU_qndY_lVCGeosn7w/90s.jpg", "title": "Crane Alley", "lon": -88.2080353, "hours": "11:00 am - 2:00 am", "lat": 40.1121427},{"category": "Things to do", "city": "Urbana Champaign, IL", "addr": "1400 Windsor Rd Champaign, IL 61821", "rating": "5.0", "imageurl": "https://s3-media4.fl.yelpcdn.com/bphoto/4NIPca4s_cvwqnJKl9EGFg/90s.jpg", "title": "Morrissey Park", "lon": -88.26873, "hours": "N/A - N/A", "lat": 40.0839019},{"category": "Things to do", "city": "Urbana Champaign, IL", "addr": "203 W Park Ave Champaign, IL 61820", "rating": "4.5", "imageurl": "https://s3-media3.fl.yelpcdn.com/bphoto/UgaHeAic1iZdqgA-NYiW9A/90s.jpg", "title": "Virginia Theatre", "lon": -88.2455847, "hours": "10:00 am - 5:30 pm", "lat": 40.1170182},{"category": "Things to do", "city": "Urbana Champaign, IL", "addr": "202 S Broadway Ave Urbana, IL 61801", "rating": "4.0", "imageurl": "https://s3-media1.fl.yelpcdn.com/bphoto/U2-rP6FQlFUpNZEP2Fr8Pw/90s.jpg", "title": "Urbana Champaign Independent Media Center", "lon": -88.2068934, "hours": "N/A - N/A", "lat": 40.111405},{"category": "Things to do", "city": "Urbana Champaign, IL", "addr": "51 E Main St Champaign, IL 61820", "rating": "3.5", "imageurl": "https://s3-media2.fl.yelpcdn.com/bphoto/bJL6MUFSjcoqMf1EiQUggQ/90s.jpg", "title": "The Accord", "lon": -88.2408974, "hours": "6:00 pm - 10:00 pm", "lat": 40.117801},{"category": "Things to do", "city": "Urbana Champaign, IL", "addr": "100 Trade Centre Dr Champaign, IL 61820", "rating": "4.0", "imageurl": "https://s3-media3.fl.yelpcdn.com/bphoto/ZnXVu7Gvt7vbtYFk_apwbQ/90s.jpg", "title": "Baxterjeehaeng American Grille", "lon": -88.2458299398422, "hours": "11:00 am - 10:30 pm", "lat": 40.0972098874916},{"category": "Things to do", "city": "Urbana Champaign, IL", "addr": "606 W Windsor Rd Urbana, IL 61801", "rating": "N/A", "imageurl": "https://s3-media3.fl.yelpcdn.com/assets/srv0/yelp_styleguide/fe8c0c8725d3/assets/img/default_avatars/business_90_square.png", "title": "Pollinatarium", "lon": -88.2145348717194, "hours": "1:00 pm - 4:00 pm", "lat": 40.0872301070094},{"category": "Things to do", "city": "Urbana Champaign, IL", "addr": "32 E Chester St Champaign, IL 61820", "rating": "4.0", "imageurl": "https://s3-media2.fl.yelpcdn.com/bphoto/OQkuCXRZaKHs_mM8lh3GWA/90s.jpg", "title": "Seven Saints", "lon": -88.2420127724, "hours": "11:00 am - 12:00 am", "lat": 40.1165558776},{"category": "Things to do", "city": "Urbana Champaign, IL", "addr": "608 E Green St Urbana, IL 61802", "rating": "N/A", "imageurl": "https://s3-media3.fl.yelpcdn.com/bphoto/0XUr9QoLdupDXcxAbY7ukw/90s.jpg", "title": "Nuzbox", "lon": -88.2005093246698, "hours": "N/A - N/A", "lat": 40.1109076185163},{"category": "Things to do", "city": "Urbana Champaign, IL", "addr": "604 E Green St Champaign, IL 61820", "rating": "3.5", "imageurl": "https://s3-media3.fl.yelpcdn.com/bphoto/WtfY3BE_thsKQGFUxzQtPw/90s.jpg", "title": "Murphyjeehaeng Pub", "lon": -88.2301879674196, "hours": "11:00 am - 2:00 am", "lat": 40.1103799066466},{"category": "Things to do", "city": "Urbana Champaign, IL", "addr": "1 E Main St Ste 101 Champaign, IL 61820", "rating": "3.5", "imageurl": "https://s3-media3.fl.yelpcdn.com/bphoto/I3FTwxp5FPQ6Wz7A6PXqHw/90s.jpg", "title": "Big Grove Tavern", "lon": -88.2429963, "hours": "11:00 am - 10:00 pm", "lat": 40.1183809},{"category": "Things to do", "city": "Urbana Champaign, IL", "addr": "232 W Burwash Savoy, IL 61874", "rating": "4.0", "imageurl": "https://s3-media1.fl.yelpcdn.com/bphoto/Kwdp1CyYitf6MzWTuMPr8A/90s.jpg", "title": "Savoy 16", "lon": -88.2520373408799, "hours": "10:30 am - 10:45 pm", "lat": 40.0729000347332},{"category": "Things to do", "city": "Urbana Champaign, IL", "addr": "219 S Locust St Champaign, IL 61820", "rating": "5.0", "imageurl": "https://s3-media2.fl.yelpcdn.com/bphoto/AyzOSaKStfTgt9MS8y7pcg/90s.jpg", "title": "Luyando Boxing", "lon": -88.2394277, "hours": "4:30 pm - 7:00 pm", "lat": 40.1148749},{"category": "Things to do", "city": "Urbana Champaign, IL", "addr": "Champaign, IL 61824", "rating": "4.5", "imageurl": "https://s3-media4.fl.yelpcdn.com/bphoto/brhX4yQd1xl3sfv8l9qFGg/90s.jpg", "title": "Christie Clinic Illinois Marathon", "lon": -88.2434596, "hours": "N/A - N/A", "lat": 40.1211828},{"category": "Things to do", "city": "Urbana Champaign, IL", "addr": "419 N Neil St Champaign, IL 61820", "rating": "4.0", "imageurl": "https://s3-media2.fl.yelpcdn.com/bphoto/6EyJ6D-xZjLBoocuoDdAig/90s.jpg", "title": "Bentleyjeehaeng Pub", "lon": -88.243878, "hours": "3:00 pm - 2:00 am", "lat": 40.119931},{"category": "Things to do", "city": "Urbana Champaign, IL", "addr": "302 S Neil St Champaign, IL 61820", "rating": "4.0", "imageurl": "https://s3-media4.fl.yelpcdn.com/bphoto/zmvcPIihiIa5O44W0dBjnQ/90s.jpg", "title": "Tumble Inn Tavern", "lon": -88.243041, "hours": "7:00 am - 2:00 pm", "lat": 40.113786},{"category": "Things to do", "city": "Urbana Champaign, IL", "addr": "303 W University Ave Urbana, IL 61801", "rating": "4.0", "imageurl": "https://s3-media3.fl.yelpcdn.com/assets/srv0/yelp_styleguide/fe8c0c8725d3/assets/img/default_avatars/business_90_square.png", "title": "Urbana Park District", "lon": -88.210388, "hours": "N/A - N/A", "lat": 40.115893},{"category": "Things to do", "city": "Urbana Champaign, IL", "addr": "6 E Taylor St Champaign, IL 61820", "rating": "3.0", "imageurl": "https://s3-media3.fl.yelpcdn.com/bphoto/4PVIs8WkScWfUb-8yPXfoQ/90s.jpg", "title": "Cowboy Monkey", "lon": -88.243133, "hours": "8:00 pm - 2:00 am", "lat": 40.1175386},{"category": "Things to do", "city": "Urbana Champaign, IL", "addr": "505 E Armory room 160 Champaign, IL 61820", "rating": "5.0", "imageurl": "https://s3-media3.fl.yelpcdn.com/assets/srv0/yelp_styleguide/fe8c0c8725d3/assets/img/default_avatars/business_90_square.png", "title": "Armory Free Theatre", "lon": -88.2319499, "hours": "N/A - N/A", "lat": 40.1047489},{"category": "Things to do", "city": "Urbana Champaign, IL", "addr": "212 S 1st St Champaign, IL 61820", "rating": "5.0", "imageurl": "https://s3-media3.fl.yelpcdn.com/assets/srv0/yelp_styleguide/fe8c0c8725d3/assets/img/default_avatars/business_90_square.png", "title": "Living Yoga Center", "lon": -88.23839, "hours": "N/A - N/A", "lat": 40.1149289},{"category": "Things to do", "city": "Urbana Champaign, IL", "addr": "503 E John St Champaign, IL 61820", "rating": "5.0", "imageurl": "https://s3-media1.fl.yelpcdn.com/bphoto/4eWYIPDMXm0YuZtBH7Y7xg/90s.jpg", "title": "Hillel Foundation", "lon": -88.2315754, "hours": "10:00 am - 10:00 pm", "lat": 40.1087243},{"category": "Things to do", "city": "Urbana Champaign, IL", "addr": "109 W John St Champaign, IL 61820", "rating": "5.0", "imageurl": "https://s3-media1.fl.yelpcdn.com/bphoto/O8FydUqSONFTR3RTY7U36Q/90s.jpg", "title": "Anytime Fitness", "lon": -88.24428, "hours": "Open 24 hours", "lat": 40.10853},{"category": "Things to do", "city": "Urbana Champaign, IL", "addr": "Serving Champaign and surrounding area", "rating": "N/A", "imageurl": "https://s3-media4.fl.yelpcdn.com/bphoto/_jRdmVzsgc-OiFm7waXIow/90s.jpg", "title": "Discover C", "lon": -88.24905395507812, "hours": "N/A - N/A", "lat": 40.102715093492705},{"category": "Things to do", "city": "Urbana Champaign, IL", "addr": "204 W Main St Urbana, IL 61801", "rating": "4.5", "imageurl": "https://s3-media3.fl.yelpcdn.com/bphoto/MBaqg2ki6XErXHJz_wTRBQ/90s.jpg", "title": "Sipyard", "lon": -88.2091920932547, "hours": "4:30 pm - 9:00 pm", "lat": 40.1125736143422},{"category": "Things to do", "city": "Urbana Champaign, IL", "addr": "1717 Philo Rd Ste 13 Urbana, IL 61802", "rating": "3.0", "imageurl": "https://s3-media4.fl.yelpcdn.com/bphoto/CsCTG0Dw5CE_3SpadNv6RQ/90s.jpg", "title": "Midwest Scuba Center", "lon": -88.192353, "hours": "11:00 am - 5:30 pm", "lat": 40.0970175},{"category": "Things to do", "city": "Urbana Champaign, IL", "addr": "505 S Chestnut St Champaign, IL 61820", "rating": "5.0", "imageurl": "https://s3-media3.fl.yelpcdn.com/bphoto/x3Uap3SWG-HmoRfJgQAKsw/90s.jpg", "title": "Illini Pub Cycle", "lon": -88.2427666, "hours": "9:00 am - 10:30 pm", "lat": 40.1109667},{"category": "Things to do", "city": "Urbana Champaign, IL", "addr": "Champaign, IL 61821", "rating": "5.0", "imageurl": "https://s3-media4.fl.yelpcdn.com/bphoto/yJqXZmRVgjX-4tnGP5G4xQ/90s.jpg", "title": "Jennifer Allen Therapies", "lon": -88.2753144, "hours": "9:00 am - 7:00 pm", "lat": 40.1017582},{"category": "Things to do", "city": "Urbana Champaign, IL", "addr": "624 S 5th St Champaign, IL 61820", "rating": "5.0", "imageurl": "https://s3-media3.fl.yelpcdn.com/bphoto/HwQj1SSBvxYw_GkyowDaSQ/90s.jpg", "title": "Neutral Cycle", "lon": -88.2319361, "hours": "11:00 am - 7:00 pm", "lat": 40.1107245},{"category": "Things to do", "city": "Urbana Champaign, IL", "addr": "701 N Lombard St Mahomet, IL 61853", "rating": "5.0", "imageurl": "https://s3-media1.fl.yelpcdn.com/bphoto/ceNf2_18MPf-gLUgWENnbA/90s.jpg", "title": "Lake of the Woods Forest Preserve, Buffalo Trace Prairie", "lon": -88.3930678703308, "hours": "N/A - N/A", "lat": 40.1948925059802},{"category": "Things to do", "city": "Urbana Champaign, IL", "addr": "134 W Church St Champaign, IL 61820", "rating": "4.0", "imageurl": "https://s3-media1.fl.yelpcdn.com/bphoto/1Kd4lwfCjmOt9wd4EwuQug/90s.jpg", "title": "The Himalayan Chimney", "lon": -88.2449947, "hours": "11:00 am - 3:00 pm\n5:00 pm - 10:00 pm", "lat": 40.1185125},{"category": "Things to do", "city": "Urbana Champaign, IL", "addr": "223 N Broadway Ave Urbana, IL 61801", "rating": "4.5", "imageurl": "https://s3-media1.fl.yelpcdn.com/bphoto/fkHrW1nOWag66qXeCqlfpQ/90s.jpg", "title": "The Station Theatre", "lon": -88.2081304, "hours": "7:00 pm - 10:30 pm", "lat": 40.1148043},{"category": "Things to do", "city": "Urbana Champaign, IL", "addr": "805 S Mathews Ave Urbana, IL 61801", "rating": "N/A", "imageurl": "https://s3-media1.fl.yelpcdn.com/bphoto/HPGXvfv7OhkXh__A3IucfQ/90s.jpg", "title": "Astronomy Society Open House", "lon": -88.226226941868, "hours": "N/A - N/A", "lat": 40.1052320123028}]
